[{"hotelId":13585,"hotelName":"Waldorf Hotel","street":"17 Rue Du Depart","zip":75014,"regionId":143798,"regionName":"Paris","regionParent":"Ile-de-France","countryName":"France","latitude":48.841,"longitude":2.3224,"rating":3,"photoUrl":"http://www.sletoh.com/photo/1/18696.jpg","price":13469},{"hotelId":25366,"hotelName":"Montebianco Mokinba Hotels Hotel","street":"Via Monterosa 90","zip":20149,"regionId":200136,"regionName":"Milan","regionParent":"Lombardy","countryName":"Italy","latitude":45.478,"longitude":9.1445,"rating":4,"photoUrl":"http://www.sletoh.com/photo/1/35652.jpg","price":24031},{"hotelId":23541,"hotelName":"Bridge Of Lochay Hotel","street":"Aberfeldy Road","zip":"FK21 8TS","regionId":8405,"regionName":"Killin","regionParent":"Scotland","countryName":"UK","latitude":56.478,"longitude":-4.324,"rating":3,"photoUrl":"http://www.sletoh.com/photo/1/33183.jpg","price":7311},{"hotelId":61762,"hotelName":"Hollybrook Country Inn","street":"Bronwydd","zip":"SA336BE","regionId":3565,"regionName":"Carmarthen","regionParent":"Wales","countryName":"UK","latitude":51.891,"longitude":-4.301,"rating":4,"photoUrl":"http://www.sletoh.com/photo/1/609151.jpg","price":23685},{"hotelId":56694,"hotelName":"Lindauer Hof Hotel","street":"Dammgasse 2","zip":88131,"regionId":65150,"regionName":"Lindau","regionParent":"Bavaria","countryName":"Germany","latitude":47.545,"longitude":9.6841,"rating":4,"photoUrl":"http://www.sletoh.com/photo/1/74356.jpg","price":12289},{"hotelId":19773,"hotelName":"Cabo Cervera","street":"Crta. Torrevieja a La Mata","zip":"03188","regionId":186496,"regionName":"Torrevieja","regionParent":"Valencian Community","countryName":"Spain","latitude":38.004,"longitude":-0.65,"rating":3,"photoUrl":"http://www.sletoh.com/photo/1/28190.jpg","price":13304},{"hotelId":58056,"hotelName":"Fiesta Hotel Paraiso Floral","street":"Avenida Adeje, 300. Urbanizacion Playa Paraiso","zip":38670,"regionId":180961,"regionName":"Playa Paraiso","regionParent":"Tenerife","countryName":"Spain","latitude":28.12,"longitude":-16.77,"rating":3,"photoUrl":"http://www.sletoh.com/photo/1/266438.jpg","price":21151},{"hotelId":45066,"hotelName":"Hadley Bowling Green Inn","street":"Hadley Heath, Nr Droitwich","zip":"WR9 0AR","regionId":11379,"regionName":"Ombersley","regionParent":"West Midlands","countryName":"UK","latitude":52.256,"longitude":-2.204,"rating":3,"photoUrl":"http://www.sletoh.com/photo/3/243309.jpg","price":18859},{"hotelId":36258,"hotelName":"Romantik Hotel Manoir du Dragon","street":"Albertlaan 73","zip":8300,"regionId":237339,"regionName":"Knokke-Heist","regionParent":"West Flanders","countryName":"Belgium","latitude":51.345,"longitude":3.291,"rating":4,"photoUrl":"http://www.sletoh.com/photo/1/47727.jpg","price":21396},{"hotelId":16273,"hotelName":"Riviera Villefranche Hotel","street":"2 Avenue Albert 1er","zip":6230,"regionId":159824,"regionName":"Villefranche-sur-Mer","regionParent":"Provence-Alpes-Cote d'Azur","countryName":"France","latitude":43.706,"longitude":7.311,"rating":2,"photoUrl":"http://www.sletoh.com/photo/1/22986.jpg","price":17325},{"hotelId":70390,"hotelName":"Premier Inn Glenrothes","street":"Beaufort Drive, Bankhead Roundabout","zip":"KY7 4UJ","regionId":6615,"regionName":"Glenrothes","regionParent":"Scotland","countryName":"UK","latitude":56.181,"longitude":-3.152,"rating":3,"photoUrl":"http://www.sletoh.com/photo/1/603005.jpg","price":10675},{"hotelId":39915,"hotelName":"Excelsior Splendide Hotel","street":"Via Lungo Lago Manzoni 28","zip":22021,"regionId":191397,"regionName":"Bellagio","regionParent":"Lombardy","countryName":"Italy","latitude":45.988,"longitude":9.2618,"rating":3,"photoUrl":"http://www.sletoh.com/photo/1/53363.jpg","price":13599},{"hotelId":40809,"hotelName":"Riu Palace Tenerife","street":"La Herradura","zip":38660,"regionId":161497,"regionName":"Costa Adeje","regionParent":"Tenerife","countryName":"Spain","latitude":28.093,"longitude":-16.74,"rating":4,"photoUrl":"http://www.sletoh.com/photo/7/146747.jpg","price":8823},{"hotelId":67433,"hotelName":"Bauer Hotel Gasthof","street":"Muenchner Strasse 6","zip":85622,"regionId":69893,"regionName":"Munich","regionParent":"Bavaria","countryName":"Germany","latitude":48.102,"longitude":11.541,"rating":2,"photoUrl":"http://www.sletoh.com/photo/15/505823.jpg","price":21350},{"hotelId":19009,"hotelName":"NH Arguelles","street":"Vallehermoso, 65","zip":28015,"regionId":176804,"regionName":"Madrid","regionParent":"Madrid","countryName":"Spain","latitude":40.437,"longitude":-3.708,"rating":3,"photoUrl":"http://www.sletoh.com/photo/1/26874.jpg","price":22714},{"hotelId":27349,"hotelName":"Champagne Palace Hotel","street":"Via Principe Amedeo,82","zip":185,"regionId":204329,"regionName":"Rome","regionParent":"Lazio","countryName":"Italy","latitude":41.898,"longitude":12.5,"rating":4,"photoUrl":"http://www.sletoh.com/photo/15/503310.jpg","price":15791},{"hotelId":62037,"hotelName":"Hotel Hammermuhle - Nichtraucherhotel","street":"Hammermuhlenweg 2","zip":"07646","regionId":89762,"regionName":"Stadtroda","regionParent":"Thuringia","countryName":"Germany","latitude":50.865,"longitude":11.723,"rating":4,"photoUrl":"http://localhost/platform/photo/1/709757.jpg","price":8094},{"hotelId":7685,"hotelName":"Auld Reekie Apartments City Centre Apartment","street":"Elm Row","zip":"EH7 4AQ","regionId":5677,"regionName":"Edinburgh","regionParent":"Scotland","countryName":"UK","latitude":55.96,"longitude":-3.181,"rating":3,"photoUrl":"http://www.sletoh.com/photo/3/177493.jpg","price":14139},{"hotelId":36884,"hotelName":"Porto Santa Maria Hotel","street":"Avenida do Mar e das Comunidades Madeirenses, no 50","zip":"9050-029","regionId":250880,"regionName":"Funchal","regionParent":"Madeira","countryName":"Portugal","latitude":32.646,"longitude":-16.9,"rating":4,"photoUrl":"http://www.sletoh.com/photo/1/48768.jpg","price":14092},{"hotelId":17825,"hotelName":"Decimononico","street":"Pescateria, 1","zip":"08003","regionId":163874,"regionName":"Barcelona","regionParent":"Catalonia","countryName":"Spain","latitude":41.383,"longitude":2.184,"rating":3,"photoUrl":"http://www.sletoh.com/photo/1/24969.jpg","price":9442},{"hotelId":22628,"hotelName":"Premiere Classe La Rochelle Nord - Puilboreau","street":"Rue De La Belle Etoile - Route De Paris","zip":17138,"regionId":146374,"regionName":"Puilboreau","regionParent":"Poitou-Charentes","countryName":"France","latitude":46.18,"longitude":-1.093,"rating":"","photoUrl":"http://www.sletoh.com/photo/1/32100.jpg","price":7673},{"hotelId":37445,"hotelName":"Apollofirst Hampshire Classic","street":"Apollolaan 123-125","zip":"1077 AP","regionId":261031,"regionName":"Amsterdam","regionParent":"North Holland","countryName":"Netherlands","latitude":52.35,"longitude":4.8761,"rating":4,"photoUrl":"http://www.sletoh.com/photo/1/49720.jpg","price":7088},{"hotelId":74421,"hotelName":"Hotel De Chantaco","street":"Route D 'Ascain","zip":64500,"regionId":150799,"regionName":"Saint-Jean-de-Luz","regionParent":"Aquitaine","countryName":"France","latitude":43.373,"longitude":-1.637,"rating":4,"photoUrl":"http://localhost/platform/photo/1/704702.jpg","price":6766},{"hotelId":36561,"hotelName":"Residencial Mar A Vista","street":"Cerro Da Piedade","zip":8200,"regionId":244658,"regionName":"Albufeira","regionParent":"Faro","countryName":"Portugal","latitude":37.085,"longitude":-8.259,"rating":2,"photoUrl":"http://www.sletoh.com/photo/1/48233.jpg","price":23918},{"hotelId":54391,"hotelName":"Hotel De La Paix","street":"Bernastrasse 24","zip":3800,"regionId":230098,"regionName":"Interlaken","regionParent":"Kanton Bern","countryName":"Switzerland","latitude":46.68,"longitude":7.8539,"rating":3,"photoUrl":"http://www.sletoh.com/photo/1/70352.jpg","price":7748},{"hotelId":75132,"hotelName":"Premier Inn Dundee Centre","street":"Riverside Drive","zip":"DD1 4XA","regionId":5333,"regionName":"Dundee","regionParent":"Scotland","countryName":"UK","latitude":56.453,"longitude":-2.979,"rating":3,"photoUrl":"http://localhost/platform/photo/1/703264.jpg","price":23474},{"hotelId":53270,"hotelName":"Il Bottaccio Di Montignoso","street":"Via Bottaccio, 1","zip":54038,"regionId":200926,"regionName":"Montignoso","regionParent":"Tuscany","countryName":"Italy","latitude":44.015,"longitude":10.169,"rating":4,"photoUrl":"http://www.sletoh.com/photo/1/65588.jpg","price":10431},{"hotelId":44144,"hotelName":"Comfort Inn Eastern Sands","street":"1 Bellerine Street","zip":3220,"regionId":287541,"regionName":"Geelong","regionParent":"Victoria","countryName":"Australia","latitude":-38.14,"longitude":144.36,"rating":4,"photoUrl":"http://www.sletoh.com/photo/15/560883.jpg","price":11871},{"hotelId":5702,"hotelName":"Melia White House Hotel","street":"Albany Street","zip":"NW1 3UP","regionId":7183,"regionName":"London","regionParent":"Greater London","countryName":"UK","latitude":51.525,"longitude":-0.143,"rating":4,"photoUrl":"http://www.sletoh.com/photo/1/7554.jpg","price":12128},{"hotelId":39224,"hotelName":"Cenobio Dei Dogi","street":"Via Cuneo, 34","zip":16032,"regionId":192597,"regionName":"Camogli","regionParent":"Liguria","countryName":"Italy","latitude":44.347,"longitude":9.1568,"rating":4,"photoUrl":"http://www.sletoh.com/photo/1/52513.jpg","price":5247},{"hotelId":58772,"hotelName":"Gamma Hotel","street":"Viale Toscanelli Nr.6","zip":47900,"regionId":203995,"regionName":"Rimini","regionParent":"Emilia-Romagna","countryName":"Italy","latitude":44.075,"longitude":12.56,"rating":2,"photoUrl":"http://www.sletoh.com/photo/1/266547.jpg","price":17866},{"hotelId":58563,"hotelName":"Inter-Hotel Le Relais Volubilis","street":"Parc Europe 340 Avenue De La Marne","zip":59700,"regionId":137995,"regionName":"Marcq-en-Baroeul","regionParent":"Nord-Pas-de-Calais","countryName":"France","latitude":50.679,"longitude":3.115,"rating":3,"photoUrl":"http://www.sletoh.com/photo/1/272658.jpg","price":8569},{"hotelId":25689,"hotelName":"Albergo Umbria","street":"Roma 72","zip":5030,"regionId":201703,"regionName":"Otricoli","regionParent":"Umbria","countryName":"Italy","latitude":42.424,"longitude":12.479,"rating":3,"photoUrl":"http://www.sletoh.com/photo/1/36247.jpg","price":16297},{"hotelId":35306,"hotelName":"City Partner Hotel Freihof","street":"Freihofstrasse 67-69","zip":"D-70439","regionId":91654,"regionName":"Stuttgart","regionParent":"Baden Wurttemberg","countryName":"Germany","latitude":48.844,"longitude":9.1582,"rating":3,"photoUrl":"http://www.sletoh.com/photo/1/46832.jpg","price":5660},{"hotelId":19687,"hotelName":"Ciutat de Tarragona","street":"Plaza Imperial Tarraco 5","zip":43005,"regionId":185878,"regionName":"Tarragona","regionParent":"Catalonia","countryName":"Spain","latitude":41.118,"longitude":1.2448,"rating":4,"photoUrl":"http://www.sletoh.com/photo/1/28317.jpg","price":23791},{"hotelId":19945,"hotelName":"AH Agora World Trade Center","street":"Maria Zambrano, 31","zip":50018,"regionId":189772,"regionName":"Zaragoza","regionParent":"Aragon","countryName":"Spain","latitude":41.669,"longitude":-0.889,"rating":4,"photoUrl":"http://www.sletoh.com/photo/1/28588.jpg","price":18730},{"hotelId":21300,"hotelName":"Daina Hotel","street":"Cl Atilio Boveri 2","zip":"07470","regionId":181132,"regionName":"Puerto Pollensa","regionParent":"Mallorca","countryName":"Spain","latitude":39.907,"longitude":3.0825,"rating":4,"photoUrl":"http://www.sletoh.com/photo/1/67775.jpg","price":21716},{"hotelId":67378,"hotelName":"Inter-hotel Hostellerie Des Pins","street":"148 Route de Marseille","zip":26200,"regionId":140615,"regionName":"Montelimar","regionParent":"Rhone-Alpes","countryName":"France","latitude":44.541,"longitude":4.7464,"rating":3,"photoUrl":"http://www.sletoh.com/photo/1/613357.jpg","price":5027},{"hotelId":5771,"hotelName":"Days Inn Cardiff Airport","street":"Port Road","zip":"CF62 3BT","regionId":2047,"regionName":"Barry","regionParent":"Wales","countryName":"UK","latitude":51.447,"longitude":-3.262,"rating":3,"photoUrl":"http://www.sletoh.com/photo/1/7606.jpg","price":15547},{"hotelId":12505,"hotelName":"Comfort Hotel am Medienpark","street":"Bahnhofstrasse 15","zip":85774,"regionId":94313,"regionName":"Unterfohring","regionParent":"Bavaria","countryName":"Germany","latitude":48.191,"longitude":11.645,"rating":3,"photoUrl":"http://www.sletoh.com/photo/1/17701.jpg","price":12192},{"hotelId":29902,"hotelName":"Villa Sogno","street":"Via De Nicola 3","zip":21047,"regionId":206395,"regionName":"Saronno","regionParent":"Lombardy","countryName":"Italy","latitude":45.626,"longitude":9.0198,"rating":"","photoUrl":"http://www.sletoh.com/photo/3/226106.jpg","price":21722},{"hotelId":10564,"hotelName":"Flair Hotel Wilhelmsburg","street":"Eckartsbergaer Strasse 20","zip":6628,"regionId":28270,"regionName":"Bad Kosen","regionParent":"Saxony-Anhalt","countryName":"Germany","latitude":51.133,"longitude":11.71,"rating":3,"photoUrl":"http://www.sletoh.com/photo/1/14310.jpg","price":17845},{"hotelId":49123,"hotelName":"Pension Haydn Hotel","street":"Haydnstr. 9","zip":80336,"regionId":69893,"regionName":"Munich","regionParent":"Bavaria","countryName":"Germany","latitude":48.13,"longitude":11.557,"rating":2,"photoUrl":"http://www.sletoh.com/photo/1/62247.jpg","price":11466},{"hotelId":29896,"hotelName":"Agriturismo Pianura Verde","street":"Strada Rota Martina","zip":63019,"regionId":206037,"regionName":"Sant'Elpidio a Mare","regionParent":"Marche","countryName":"Italy","latitude":43.307,"longitude":13.717,"rating":"","photoUrl":"http://www.sletoh.com/photo/3/226055.jpg","price":21359},{"hotelId":34425,"hotelName":"Sonne Hotel","street":"Hauptstrasse 34","zip":3800,"regionId":230098,"regionName":"Interlaken","regionParent":"Kanton Bern","countryName":"Switzerland","latitude":46.679,"longitude":7.864,"rating":3,"photoUrl":"http://www.sletoh.com/photo/1/45762.jpg","price":15832},{"hotelId":24781,"hotelName":"Annabella Hotel in Florence","street":"Via Fiume 5","zip":50123,"regionId":196899,"regionName":"Florence","regionParent":"Tuscany","countryName":"Italy","latitude":43.777,"longitude":11.249,"rating":3,"photoUrl":"http://www.sletoh.com/photo/1/34878.jpg","price":12361},{"hotelId":22766,"hotelName":"Petul Hotel","street":"Essener Strasse 11-13","zip":45141,"regionId":41023,"regionName":"Essen","regionParent":"North Rhine-Westphalia","countryName":"Germany","latitude":51.474,"longitude":7.0372,"rating":3,"photoUrl":"http://www.sletoh.com/photo/1/32318.jpg","price":14271},{"hotelId":56730,"hotelName":"Haus Karrenberg","street":"Strassheck 3","zip":55481,"regionId":59028,"regionName":"Kirchberg","regionParent":"Rhineland-Palatinate","countryName":"Germany","latitude":49.936,"longitude":7.3835,"rating":"","photoUrl":"http://www.sletoh.com/photo/1/74416.jpg","price":19270},{"hotelId":31893,"hotelName":"Premier West","street":"28/34 Glenthorne Road","zip":"W6 0LS","regionId":7183,"regionName":"London","regionParent":"Greater London","countryName":"UK","latitude":51.494,"longitude":-0.228,"rating":3,"photoUrl":"http://www.sletoh.com/photo/4/119436.jpg","price":24438},{"hotelId":54199,"hotelName":"Hostal Oriola","street":"Torrente, 35","zip":"07469","regionId":165666,"regionName":"Cala San Vicente","regionParent":"Mallorca","countryName":"Spain","latitude":39.917,"longitude":3.0542,"rating":2,"photoUrl":"http://www.sletoh.com/photo/1/66687.jpg","price":18312},{"hotelId":55140,"hotelName":"Mercure Millau","street":"1 Place de la Tine","zip":12100,"regionId":139618,"regionName":"Millau","regionParent":"Midi-Pyrenees","countryName":"France","latitude":44.101,"longitude":3.0797,"rating":3,"photoUrl":"http://www.sletoh.com/photo/1/71584.jpg","price":18165},{"hotelId":77341,"hotelName":"Hotel Du Lion","street":"1 Avenue Du General Leclerc","zip":75014,"regionId":143798,"regionName":"Paris","regionParent":"Ile-de-France","countryName":"France","latitude":48.833,"longitude":2.3317,"rating":2,"photoUrl":"http://localhost/platform/photo/1/711755.jpg","price":7297},{"hotelId":8508,"hotelName":"Hotel Am Hehlentor","street":"Nordwall 62-63","zip":29221,"regionId":35154,"regionName":"Celle","regionParent":"Lower Saxony","countryName":"Germany","latitude":52.626,"longitude":10.081,"rating":3,"photoUrl":"http://www.sletoh.com/photo/1/10643.jpg","price":16682},{"hotelId":74411,"hotelName":"Hotel et Restaurant Manoir De La Combe","street":"La Combe D'en Haut","zip":56140,"regionId":147777,"regionName":"Rochefort-en-Terre","regionParent":"Brittany","countryName":"France","latitude":47.798,"longitude":-2.378,"rating":3,"photoUrl":"http://localhost/platform/photo/1/704460.jpg","price":19393},{"hotelId":60338,"hotelName":"IBB Eth Palai","street":"Garona 7","zip":25530,"regionId":188014,"regionName":"Vielha e Mijaran","regionParent":"Catalonia","countryName":"Spain","latitude":42.701,"longitude":0.7992,"rating":3,"photoUrl":"http://www.sletoh.com/photo/7/345941.jpg","price":9357},{"hotelId":29110,"hotelName":"Agriturismo Torre Del Fondo","street":"Via Coronella 27","zip":44100,"regionId":196742,"regionName":"Ferrara","regionParent":"Emilia-Romagna","countryName":"Italy","latitude":44.806,"longitude":11.551,"rating":3,"photoUrl":"http://www.sletoh.com/photo/3/221562.jpg","price":10394},{"hotelId":27099,"hotelName":"Fortuna Hotel","street":"Via Venezia 26","zip":37019,"regionId":202292,"regionName":"Peschiera del Garda","regionParent":"Veneto","countryName":"Italy","latitude":45.44,"longitude":10.7,"rating":4,"photoUrl":"http://www.sletoh.com/photo/1/38308.jpg","price":14562},{"hotelId":68577,"hotelName":"Gastehaus Talbach","street":"Griesgasse 455","zip":8970,"regionId":221510,"regionName":"Schladming","regionParent":"Styria","countryName":"Austria","latitude":47.392,"longitude":13.684,"rating":3,"photoUrl":"http://www.sletoh.com/photo/1/618755.jpg","price":24936},{"hotelId":17942,"hotelName":"Nuevo Triunfo Hotel","street":"Cabanes 34","zip":"08004","regionId":163874,"regionName":"Barcelona","regionParent":"Catalonia","countryName":"Spain","latitude":41.373,"longitude":2.17,"rating":2,"photoUrl":"http://www.sletoh.com/photo/1/25172.jpg","price":19646},{"hotelId":77132,"hotelName":"Holiday Inn Express Leeds East","street":"2 Aberford Road, Oulton","zip":"LS26 8EJ","regionId":9013,"regionName":"Leeds","regionParent":"Yorkshire","countryName":"UK","latitude":53.746,"longitude":-1.453,"rating":3,"photoUrl":"http://localhost/platform/photo/1/709912.jpg","price":9875},{"hotelId":55387,"hotelName":"Le Belvedere d'E Catarelle","street":"E Catarelle","zip":20230,"regionId":154021,"regionName":"San-Giovanni-di-Moriani","regionParent":"Corsica","countryName":"France","latitude":42.379,"longitude":9.4786,"rating":"","photoUrl":"http://www.sletoh.com/photo/1/71991.jpg","price":11637},{"hotelId":4167,"hotelName":"Best Western Falstaff Hotel","street":"16-20 Warwick New Road","zip":"CV32 5JQ","regionId":8981,"regionName":"Leamington Spa","regionParent":"West Midlands","countryName":"UK","latitude":52.29,"longitude":-1.548,"rating":3,"photoUrl":"http://www.sletoh.com/photo/1/5954.jpg","price":21394},{"hotelId":16375,"hotelName":"Hostellerie Du Maine Brun","street":"Le Maine Brun","zip":16290,"regionId":104580,"regionName":"Asnieres-sur-Nouere","regionParent":"Poitou-Charentes","countryName":"France","latitude":45.683,"longitude":0.0547,"rating":3,"photoUrl":"http://www.sletoh.com/photo/1/23211.jpg","price":6055},{"hotelId":16831,"hotelName":"Massena","street":"58, rue Gioffredo","zip":6000,"regionId":142362,"regionName":"Nice","regionParent":"Provence-Alpes-Cote d'Azur","countryName":"France","latitude":43.698,"longitude":7.2711,"rating":4,"photoUrl":"http://localhost/platform/photo/15/686069.jpg","price":11850},{"hotelId":9692,"hotelName":"Filderhotel","street":"In den Anlagen 1","zip":73760,"regionId":76796,"regionName":"Ostfildern","regionParent":"Baden Wurttemberg","countryName":"Germany","latitude":48.715,"longitude":9.2937,"rating":3,"photoUrl":"http://www.sletoh.com/photo/1/12737.jpg","price":6115},{"hotelId":19360,"hotelName":"Villa Turistica de Priego","street":"Aldea de Zagrilla","zip":14816,"regionId":181427,"regionName":"Priego de Cordoba","regionParent":"Andalusia","countryName":"Spain","latitude":37.488,"longitude":-4.234,"rating":3,"photoUrl":"http://www.sletoh.com/photo/7/141098.jpg","price":17992},{"hotelId":4843,"hotelName":"Gellifawr Hotel","street":"Pontfaen","zip":"SA65 9TX","regionId":11003,"regionName":"Newport","regionParent":"Wales","countryName":"UK","latitude":51.975,"longitude":-4.822,"rating":3,"photoUrl":"http://www.sletoh.com/photo/1/6984.jpg","price":14584},{"hotelId":75730,"hotelName":"Premier Inn Dunfermline","street":"4-12 Whimbrel Place, Fife Leisure Park","zip":"KY11 8EX","regionId":5344,"regionName":"Dunfermline","regionParent":"Scotland","countryName":"UK","latitude":56.078,"longitude":-3.398,"rating":3,"photoUrl":"http://localhost/platform/photo/1/703269.jpg","price":6508},{"hotelId":10773,"hotelName":"Hotel-Restaurant Pollmanns","street":"Moselstr. 53-55","zip":56814,"regionId":40731,"regionName":"Ernst","regionParent":"Rhineland-Palatinate","countryName":"Germany","latitude":50.145,"longitude":7.2274,"rating":3,"photoUrl":"http://www.sletoh.com/photo/1/14672.jpg","price":13373},{"hotelId":41235,"hotelName":"Blue Ball Inn","street":"","zip":"EX35 6NE","regionId":4495,"regionName":"Countisbury","regionParent":"South West","countryName":"UK","latitude":51.231,"longitude":-3.791,"rating":3,"photoUrl":"http://www.sletoh.com/photo/3/237935.jpg","price":23903},{"hotelId":22989,"hotelName":"Melia De Mar","street":"Paseo De Illetas, 7","zip":"07184","regionId":189975,"regionName":"Illetas","regionParent":"Mallorca","countryName":"Spain","latitude":39.543,"longitude":2.595,"rating":5,"photoUrl":"http://www.sletoh.com/photo/1/32822.jpg","price":22986},{"hotelId":62265,"hotelName":"Otantik Butik Otel","street":"Barbaros Mahallesi Hesapci Sokaka No:14 Kaleici","zip":"07100","regionId":296122,"regionName":"Antalya","regionParent":"Mediterranean Region","countryName":"Turkey","latitude":36.884,"longitude":30.707,"rating":"","photoUrl":"http://www.sletoh.com/photo/1/604682.jpg","price":22833},{"hotelId":56792,"hotelName":"Sikonda Wellness Hotel and Bath","street":"Furdo u. 5","zip":7300,"regionId":281011,"regionName":"Sikonda","regionParent":"Baranya","countryName":"Hungary","latitude":46.178,"longitude":18.22,"rating":3,"photoUrl":"http://localhost/platform/photo/1/74524.jpg","price":18814},{"hotelId":25220,"hotelName":"Hotel Sant'Angelo","street":"Piazza San Pietro Caveoso - Rione Pianelle","zip":75100,"regionId":199868,"regionName":"Matera","regionParent":"Basilicata","countryName":"Italy","latitude":40.664,"longitude":16.61,"rating":4,"photoUrl":"http://www.sletoh.com/photo/1/35438.jpg","price":23508},{"hotelId":69582,"hotelName":"La Tiendona","street":"Carretera Nacional 634, Km 335","zip":33550,"regionId":163231,"regionName":"Arriondas","regionParent":"Asturias","countryName":"Spain","latitude":43.409,"longitude":-5.111,"rating":3,"photoUrl":"http://www.sletoh.com/photo/15/557311.jpg","price":23945},{"hotelId":44478,"hotelName":"Frankfurt Hotel","street":"Hidirlik Sokak 17/Kaleici","zip":"07100","regionId":296122,"regionName":"Antalya","regionParent":"Mediterranean Region","countryName":"Turkey","latitude":36.881,"longitude":30.704,"rating":2,"photoUrl":"http://www.sletoh.com/photo/1/56075.jpg","price":21184},{"hotelId":36110,"hotelName":"Catalonia Forum","street":"Av. Du Haut Pont, 2","zip":1060,"regionId":233221,"regionName":"Brussels","regionParent":"Brussels-Capital Region","countryName":"Belgium","latitude":50.82,"longitude":4.3529,"rating":3,"photoUrl":"http://www.sletoh.com/photo/1/47486.jpg","price":16577},{"hotelId":59726,"hotelName":"Limak Limra","street":"Turizm Sok. Kiris 15","zip":"07986","regionId":314111,"regionName":"Kemer","regionParent":"Mediterranean Region","countryName":"Turkey","latitude":36.57,"longitude":30.576,"rating":5,"photoUrl":"http://www.sletoh.com/photo/7/353027.jpg","price":7375},{"hotelId":41913,"hotelName":"Fritz Hotel","street":"Dorfstrasse 03 B","zip":19061,"regionId":87615,"regionName":"Schwerin","regionParent":"Mecklenburg-Western Pomerania","countryName":"Germany","latitude":53.594,"longitude":11.405,"rating":3,"photoUrl":"http://www.sletoh.com/photo/1/54556.jpg","price":8615},{"hotelId":19955,"hotelName":"Husa Hotel Center","street":"Gambrinus, 14","zip":15008,"regionId":168404,"regionName":"Corunna","regionParent":"Galicia","countryName":"Spain","latitude":43.352,"longitude":-8.423,"rating":4,"photoUrl":"http://localhost/platform/photo/15/686142.jpg","price":10614},{"hotelId":36009,"hotelName":"Sabina Hotel","street":"Rue du Nord, 78","zip":1000,"regionId":233221,"regionName":"Brussels","regionParent":"Brussels-Capital Region","countryName":"Belgium","latitude":50.85,"longitude":4.3672,"rating":2,"photoUrl":"http://www.sletoh.com/photo/1/47323.jpg","price":9410},{"hotelId":77525,"hotelName":"Aqua Fantasy Aqupark Hotel &amp; Spa","street":"Pamucak Mevkii Selcuk","zip":35920,"regionId":317229,"regionName":"Kusadasi","regionParent":"Aegean Region","countryName":"Turkey","latitude":37.92,"longitude":27.282,"rating":5,"photoUrl":"http://localhost/platform/photo/1/712391.jpg","price":7583},{"hotelId":20076,"hotelName":"Dunas De Liencres Apartments","street":"Urbanizacion Ria Del Pas S/N Salids 9 De La Autovia","zip":39478,"regionId":164950,"regionName":"Boo","regionParent":"Cantabria","countryName":"Spain","latitude":43.425,"longitude":-3.938,"rating":3,"photoUrl":"http://www.sletoh.com/photo/1/28818.jpg","price":11130},{"hotelId":43272,"hotelName":"Citigate Melbourne","street":"270 Flinders Street","zip":3000,"regionId":289729,"regionName":"Melbourne","regionParent":"Victoria","countryName":"Australia","latitude":-37.81,"longitude":144.96,"rating":4,"photoUrl":"http://www.sletoh.com/photo/4/124016.jpg","price":22508},{"hotelId":1226,"hotelName":"Royal Norfolk Hotel","street":"The Esplanade","zip":"PO21 2LH","regionId":2627,"regionName":"Bognor Regis","regionParent":"South East","countryName":"UK","latitude":50.781,"longitude":-0.68,"rating":3,"photoUrl":"http://www.sletoh.com/photo/1/1361.jpg","price":7469},{"hotelId":41632,"hotelName":"Thorne Cottage","street":"Thorne","zip":"BA21 3PZ","regionId":14565,"regionName":"Tintinhull","regionParent":"South West","countryName":"UK","latitude":50.959,"longitude":-2.676,"rating":2,"photoUrl":"http://www.sletoh.com/photo/1/54323.jpg","price":16078},{"hotelId":18445,"hotelName":"Casa D'Ivori","street":"Carrer Raval, 13","zip":43839,"regionId":168550,"regionName":"Creixell","regionParent":"Catalonia","countryName":"Spain","latitude":41.167,"longitude":1.4408,"rating":4,"photoUrl":"http://www.sletoh.com/photo/1/25916.jpg","price":7921},{"hotelId":12362,"hotelName":"Flair Hotel Die Post","street":"Rothenburger Str. 1","zip":91583,"regionId":86037,"regionName":"Schillingsfurst","regionParent":"Bavaria","countryName":"Germany","latitude":49.286,"longitude":10.259,"rating":2,"photoUrl":"http://www.sletoh.com/photo/1/17454.jpg","price":5869},{"hotelId":32447,"hotelName":"De Crillon","street":"10 Place De La Concorde","zip":75008,"regionId":143798,"regionName":"Paris","regionParent":"Ile-de-France","countryName":"France","latitude":48.867,"longitude":2.3214,"rating":5,"photoUrl":"http://localhost/platform/photo/1/704147.jpg","price":22125},{"hotelId":72433,"hotelName":"Premier Inn Basildon (Rayleigh)","street":"Arterial Road","zip":"SS6 7SP","regionId":2076,"regionName":"Basildon","regionParent":"South East","countryName":"UK","latitude":51.577,"longitude":0.6007,"rating":3,"photoUrl":"http://localhost/platform/photo/1/703648.jpg","price":23848},{"hotelId":5009,"hotelName":"China Fleet Country Club","street":"North Pill","zip":"PL12 6LJ","regionId":12814,"regionName":"Saltash","regionParent":"South West","countryName":"UK","latitude":50.418,"longitude":-4.214,"rating":3,"photoUrl":"http://www.sletoh.com/photo/1/7221.jpg","price":12620},{"hotelId":24813,"hotelName":"MSNSuites Palazzo dei Ciompi","street":"Via Pietrapiana 18","zip":50121,"regionId":196899,"regionName":"Florence","regionParent":"Tuscany","countryName":"Italy","latitude":43.771,"longitude":11.265,"rating":4,"photoUrl":"http://www.sletoh.com/photo/1/34817.jpg","price":23569},{"hotelId":60914,"hotelName":"Hotel de la Playa","street":"Paseo de Colon, 1","zip":46137,"regionId":419776,"regionName":"Playa Pobla de Farnals","regionParent":"Spain","countryName":"Spain","latitude":39.565,"longitude":-0.282,"rating":4,"photoUrl":"http://www.sletoh.com/photo/1/325678.jpg","price":21947},{"hotelId":35237,"hotelName":"Mini Palace Hotel","street":"Via S. Maria Della Grotticella 2/B","zip":"01100","regionId":209385,"regionName":"Viterbo","regionParent":"Lazio","countryName":"Italy","latitude":42.411,"longitude":12.113,"rating":4,"photoUrl":"http://www.sletoh.com/photo/1/46802.jpg","price":16708},{"hotelId":4546,"hotelName":"Nutfield Priory Hotel","street":"Nutfield","zip":"RH1 4EL","regionId":12271,"regionName":"Redhill","regionParent":"South East","countryName":"UK","latitude":51.236,"longitude":-0.149,"rating":4,"photoUrl":"http://www.sletoh.com/photo/1/6548.jpg","price":16328},{"hotelId":8398,"hotelName":"Hotel Am Romerhof","street":"Romerstrasse 20","zip":53111,"regionId":32513,"regionName":"Bonn","regionParent":"North Rhine-Westphalia","countryName":"Germany","latitude":50.742,"longitude":7.1006,"rating":3,"photoUrl":"http://www.sletoh.com/photo/1/10367.jpg","price":16871},{"hotelId":53314,"hotelName":"Feldthurnerhof Hotel","street":"Guln 1","zip":39040,"regionId":196703,"regionName":"Feldthurns","regionParent":"Trentino-Sudtirol","countryName":"Italy","latitude":46.668,"longitude":11.595,"rating":3,"photoUrl":"http://www.sletoh.com/photo/1/69392.jpg","price":6906},{"hotelId":68741,"hotelName":"Le Fiacre","street":"6, Rue Des Pommiers","zip":80120,"regionId":119320,"regionName":"Fort-Mahon-Plage","regionParent":"Picardy","countryName":"France","latitude":50.329,"longitude":1.5896,"rating":3,"photoUrl":"http://www.sletoh.com/photo/1/612315.jpg","price":16697},{"hotelId":22547,"hotelName":"Eurogroup - Hotel Courchevel Olympic","street":"Rue des Tovets","zip":73120,"regionId":115148,"regionName":"Courchevel","regionParent":"Rhone-Alpes","countryName":"France","latitude":45.415,"longitude":6.6365,"rating":2,"photoUrl":"http://www.sletoh.com/photo/1/31979.jpg","price":7458},{"hotelId":41552,"hotelName":"Westleigh of Dunster","street":"15 West Street","zip":"TA246SN","regionId":5386,"regionName":"Dunster","regionParent":"South West","countryName":"UK","latitude":51.182,"longitude":-3.446,"rating":4,"photoUrl":"http://www.sletoh.com/photo/3/157894.jpg","price":13958},{"hotelId":30072,"hotelName":"Laguna 1","street":"Cannaregio","zip":30100,"regionId":208739,"regionName":"Venice","regionParent":"Veneto","countryName":"Italy","latitude":45.443,"longitude":12.339,"rating":"","photoUrl":"http://www.sletoh.com/photo/3/226918.jpg","price":23949},{"hotelId":28987,"hotelName":"Bed and Breakfast La Vela","street":"Via Mola 6","zip":84010,"regionId":190548,"regionName":"Amalfi","regionParent":"Campania","countryName":"Italy","latitude":40.659,"longitude":14.636,"rating":"","photoUrl":"http://www.sletoh.com/photo/1/41164.jpg","price":16473},{"hotelId":18777,"hotelName":"Vila del Mar","street":"C/ De la Vila, 55E","zip":17310,"regionId":175910,"regionName":"Lloret de Mar","regionParent":"Catalonia","countryName":"Spain","latitude":41.699,"longitude":2.8489,"rating":4,"photoUrl":"http://www.sletoh.com/photo/4/115586.jpg","price":16061},{"hotelId":44672,"hotelName":"Laleli Gonen Hotel","street":"Fethibey Caddesi, Zeynep Kamil Sokak, No:56, Laleli","zip":34134,"regionId":334636,"regionName":"Istanbul","regionParent":"Marmara Region","countryName":"Turkey","latitude":41.011,"longitude":28.957,"rating":3,"photoUrl":"http://www.sletoh.com/photo/1/68739.jpg","price":10460},{"hotelId":59985,"hotelName":"Condor","street":"Mar Arabigo 1","zip":"07610","regionId":190058,"regionName":"Playa de Palma","regionParent":"Mallorca","countryName":"Spain","latitude":39.522,"longitude":2.7454,"rating":3,"photoUrl":"http://www.sletoh.com/photo/7/345818.jpg","price":22349},{"hotelId":17080,"hotelName":"Hotel D'Orsay","street":"8 boulevard Bonrepos","zip":31000,"regionId":156993,"regionName":"Toulouse","regionParent":"Midi-Pyrenees","countryName":"France","latitude":43.61,"longitude":1.4529,"rating":2,"photoUrl":"http://www.sletoh.com/photo/1/24198.jpg","price":7077},{"hotelId":13550,"hotelName":"Hotel Le Regent Montmartre","street":"37 Boulevard Rochechouart","zip":75009,"regionId":143798,"regionName":"Paris","regionParent":"Ile-de-France","countryName":"France","latitude":48.882,"longitude":2.3447,"rating":2,"photoUrl":"http://www.sletoh.com/photo/1/18639.jpg","price":9955},{"hotelId":48430,"hotelName":"Lanthia Resort","street":"Loc. Santa Maria Navarrese","zip":"08040","regionId":206255,"regionName":"Santa Maria Navarrese","regionParent":"Sardinia","countryName":"Italy","latitude":39.986,"longitude":9.6864,"rating":4,"photoUrl":"http://www.sletoh.com/photo/1/621083.jpg","price":14843},{"hotelId":54861,"hotelName":"Pestana Porto Santo","street":"Estrada Regional 111 No 120 - Sitio Do Campo De Baixo","zip":"9400-015","regionId":260206,"regionName":"Vila de Porto Santo","regionParent":"Madeira","countryName":"Portugal","latitude":33.04,"longitude":-16.35,"rating":5,"photoUrl":"http://www.sletoh.com/photo/1/71138.jpg","price":6501},{"hotelId":41775,"hotelName":"Swallow","street":"Eagle Drive, Northants","zip":"NN4 7HW","regionId":11200,"regionName":"Northampton","regionParent":"East Midlands","countryName":"UK","latitude":52.223,"longitude":-0.876,"rating":4,"photoUrl":"http://www.sletoh.com/photo/4/123574.jpg","price":11748},{"hotelId":32845,"hotelName":"Gd H Parker's","street":"Corso Vittorio Emanuele 135","zip":"","regionId":201189,"regionName":"Naples","regionParent":"Campania","countryName":"Italy","latitude":40.837,"longitude":14.229,"rating":5,"photoUrl":"http://www.sletoh.com/photo/4/98056.jpg","price":19124},{"hotelId":66755,"hotelName":"Ibis Bourg En Bresse","street":"Boulevard Charles De Gaulle","zip":"01000","regionId":108891,"regionName":"Bourg-en-Bresse","regionParent":"Rhone-Alpes","countryName":"France","latitude":46.195,"longitude":5.2373,"rating":2,"photoUrl":"http://www.sletoh.com/photo/15/595935.jpg","price":23799},{"hotelId":47829,"hotelName":"Park Hotel La Pineta","street":"Via Cravilla 50","zip":54026,"regionId":201125,"regionName":"Mulazzo","regionParent":"Tuscany","countryName":"Italy","latitude":44.313,"longitude":9.9123,"rating":3,"photoUrl":"http://www.sletoh.com/photo/1/60209.jpg","price":20111},{"hotelId":49483,"hotelName":"Jorbar Apartments","street":"C/ Cannas, 29","zip":"07600","regionId":182951,"regionName":"Arenal","regionParent":"Mallorca","countryName":"Spain","latitude":39.505,"longitude":2.7531,"rating":2,"photoUrl":"http://www.sletoh.com/photo/1/62502.jpg","price":21721},{"hotelId":44412,"hotelName":"Johannes","street":"Munzgrabenstrasse 48 und 87","zip":8010,"regionId":213308,"regionName":"Graz","regionParent":"Styria","countryName":"Austria","latitude":47.063,"longitude":15.451,"rating":2,"photoUrl":"http://www.sletoh.com/photo/5/261875.jpg","price":24736},{"hotelId":40985,"hotelName":"Maria","street":"Las Coloradas, Parcelo 17","zip":35570,"regionId":180953,"regionName":"Playa Blanca","regionParent":"Lanzarote","countryName":"Spain","latitude":28.856,"longitude":-13.81,"rating":"","photoUrl":"http://www.sletoh.com/photo/2/320082.jpg","price":21112},{"hotelId":34818,"hotelName":"Inter-Hotel Le Drakkar","street":"Rue Georges-Clemenceau","zip":27500,"regionId":145435,"regionName":"Pont-Audemer","regionParent":"Upper Normandy","countryName":"France","latitude":49.349,"longitude":0.5331,"rating":2,"photoUrl":"http://www.sletoh.com/photo/1/46213.jpg","price":13655},{"hotelId":38556,"hotelName":"Hotel Restaurant Hardersluis","street":"Harderhaven 32","zip":"3898 LN","regionId":268170,"regionName":"Zeewolde","regionParent":"Flevoland","countryName":"Netherlands","latitude":52.365,"longitude":5.6114,"rating":3,"photoUrl":"http://www.sletoh.com/photo/1/51523.jpg","price":8357},{"hotelId":11647,"hotelName":"Best Western Hotel Konig Ludwig","street":"Hohenzollernstrasse 3","zip":80801,"regionId":69893,"regionName":"Munich","regionParent":"Bavaria","countryName":"Germany","latitude":48.159,"longitude":11.584,"rating":3,"photoUrl":"http://www.sletoh.com/photo/1/16197.jpg","price":9028},{"hotelId":62440,"hotelName":"Walserberg Hotel","street":"Dorf 37","zip":6767,"regionId":224141,"regionName":"Warth","regionParent":"Lower Austria","countryName":"Austria","latitude":47.65,"longitude":16.126,"rating":4,"photoUrl":"http://www.sletoh.com/photo/1/606226.jpg","price":20110},{"hotelId":46889,"hotelName":"Hexenhaus","street":"Hofwiesenstr. 28","zip":"01169","regionId":38041,"regionName":"Dresden","regionParent":"Saxony","countryName":"Germany","latitude":51.037,"longitude":13.669,"rating":3,"photoUrl":"http://www.sletoh.com/photo/1/58696.jpg","price":5237},{"hotelId":29644,"hotelName":"Gran Santa Ponsa","street":"Rey don Jaime I","zip":"01780","regionId":184556,"regionName":"Santa Ponsa","regionParent":"Mallorca","countryName":"Spain","latitude":39.516,"longitude":2.4871,"rating":3,"photoUrl":"http://www.sletoh.com/photo/2/320706.jpg","price":15176},{"hotelId":60791,"hotelName":"Home Advice Spain Apartments","street":"Marques de Barbera, 27","zip":"08001","regionId":163874,"regionName":"Barcelona","regionParent":"Catalonia","countryName":"Spain","latitude":41.378,"longitude":2.1721,"rating":3,"photoUrl":"http://www.sletoh.com/photo/1/325654.jpg","price":23816},{"hotelId":50181,"hotelName":"Byzantio Hotel","street":"West Ring Road, Hospital Papageorgiou Area","zip":"565 10","regionId":345831,"regionName":"Thessaloniki","regionParent":"Thessaloniki","countryName":"Greece","latitude":40.668,"longitude":22.963,"rating":3,"photoUrl":"http://www.sletoh.com/photo/1/69048.jpg","price":24967},{"hotelId":52417,"hotelName":"Iberostar Fuerteventura Park","street":"Urbanizacion Las Gaviotas, Pasaje Playa, 3","zip":35626,"regionId":178414,"regionName":"Morro del Jable","regionParent":"Fuerteventura","countryName":"Spain","latitude":28.057,"longitude":-14.32,"rating":4,"photoUrl":"http://www.sletoh.com/photo/1/64773.jpg","price":20464},{"hotelId":14018,"hotelName":"Chateau de Brindos","street":"1, Allee Du Chateau","zip":64600,"regionId":103836,"regionName":"Anglet","regionParent":"Aquitaine","countryName":"France","latitude":43.463,"longitude":-1.53,"rating":5,"photoUrl":"http://www.sletoh.com/photo/1/19376.jpg","price":14252},{"hotelId":20674,"hotelName":"Fairways Bayswater","street":"186 Sussex Gardens","zip":"W2 1 TU","regionId":7183,"regionName":"London","regionParent":"Greater London","countryName":"UK","latitude":51.514,"longitude":-0.174,"rating":1,"photoUrl":"http://www.sletoh.com/photo/4/116582.jpg","price":10890},{"hotelId":27596,"hotelName":"66 Imperial Inn Deluxe","street":"Via del Viminale 66","zip":184,"regionId":204329,"regionName":"Rome","regionParent":"Lazio","countryName":"Italy","latitude":41.9,"longitude":12.494,"rating":"","photoUrl":"http://www.sletoh.com/photo/1/39067.jpg","price":21909},{"hotelId":52219,"hotelName":"Kassandra Bay","street":"63077 Kriopigi Kassandra","zip":"","regionId":340882,"regionName":"Kriopigi","regionParent":"Halkidiki","countryName":"Greece","latitude":40.033,"longitude":23.475,"rating":2,"photoUrl":"http://www.sletoh.com/photo/4/136744.jpg","price":16497},{"hotelId":34765,"hotelName":"Meister Hotel","street":"Via San Salvatore 11","zip":"CH-6902","regionId":227014,"regionName":"Lugano","regionParent":"Cantone Ticino","countryName":"Switzerland","latitude":45.983,"longitude":8.9432,"rating":3,"photoUrl":"http://www.sletoh.com/photo/7/145293.jpg","price":20471},{"hotelId":57203,"hotelName":"Benbridge Hotel","street":"The Square, Heybridge","zip":"CM9 4LT","regionId":7541,"regionName":"Heybridge","regionParent":"UK","countryName":"UK","latitude":51.74,"longitude":0.6848,"rating":3,"photoUrl":"http://www.sletoh.com/photo/3/253801.jpg","price":5740},{"hotelId":44958,"hotelName":"Shaftesbury Premier London Notting Hill","street":"5 - 7 Princes Square, Bayswater","zip":"W2 4NP","regionId":7183,"regionName":"London","regionParent":"Greater London","countryName":"UK","latitude":51.512,"longitude":-0.192,"rating":4,"photoUrl":"http://www.sletoh.com/photo/1/56663.jpg","price":17213},{"hotelId":28712,"hotelName":"Ca' San Polo","street":"Sestiere San Polo 2696","zip":30170,"regionId":208739,"regionName":"Venice","regionParent":"Veneto","countryName":"Italy","latitude":45.437,"longitude":12.33,"rating":3,"photoUrl":"http://www.sletoh.com/photo/1/40774.jpg","price":19012},{"hotelId":31851,"hotelName":"Four Points by Sheraton Rome West","street":"Viale Eroi Di Cefalonia 301","zip":"00128","regionId":196522,"regionName":"Eur","regionParent":"Lazio","countryName":"Italy","latitude":41.785,"longitude":12.435,"rating":4,"photoUrl":"http://www.sletoh.com/photo/1/42984.jpg","price":7410},{"hotelId":24089,"hotelName":"Leonardo Aparthotel","street":"Via Pietro Dal Monte 40","zip":25100,"regionId":192094,"regionName":"Brescia","regionParent":"Lombardy","countryName":"Italy","latitude":45.555,"longitude":10.23,"rating":3,"photoUrl":"http://www.sletoh.com/photo/1/33822.jpg","price":15031},{"hotelId":16577,"hotelName":"Comfort Hotel Orly Draveil","street":"46 Avenue de Bellevue","zip":91210,"regionId":116881,"regionName":"Draveil","regionParent":"Ile-de-France","countryName":"France","latitude":48.685,"longitude":2.3895,"rating":2,"photoUrl":"http://www.sletoh.com/photo/1/23430.jpg","price":13429},{"hotelId":19323,"hotelName":"NH Parla","street":"Avda Leguario No2","zip":28980,"regionId":180147,"regionName":"Parla","regionParent":"Madrid","countryName":"Spain","latitude":40.229,"longitude":-3.776,"rating":3,"photoUrl":"http://www.sletoh.com/photo/1/27994.jpg","price":5161},{"hotelId":46303,"hotelName":"Ambiente Hotel","street":"Dr.-Wilhelm-Kulz-Strasse 5a","zip":19336,"regionId":28362,"regionName":"Bad Wilsnack","regionParent":"Brandenburg","countryName":"Germany","latitude":52.96,"longitude":11.952,"rating":4,"photoUrl":"http://www.sletoh.com/photo/1/57759.jpg","price":13619},{"hotelId":31275,"hotelName":"Roemischer Kaiser Hotel","street":"Markt 2","zip":54470,"regionId":30772,"regionName":"Bernkastel-Kues","regionParent":"Rhineland-Palatinate","countryName":"Germany","latitude":49.915,"longitude":7.0757,"rating":3,"photoUrl":"http://www.sletoh.com/photo/1/42113.jpg","price":11215},{"hotelId":33253,"hotelName":"Muhlviertlerhof Hotel","street":"Graben 24","zip":4020,"regionId":216834,"regionName":"Linz","regionParent":"Upper Austria","countryName":"Austria","latitude":48.305,"longitude":14.288,"rating":3,"photoUrl":"http://www.sletoh.com/photo/1/43868.jpg","price":5131},{"hotelId":52047,"hotelName":"Aonach Mor Guest House","street":"14 Kilmaurs Terrace, Newington, Edinburgh","zip":"EH16 5DR","regionId":5677,"regionName":"Edinburgh","regionParent":"Scotland","countryName":"UK","latitude":55.934,"longitude":-3.166,"rating":4,"photoUrl":"http://www.sletoh.com/photo/3/250953.jpg","price":19484},{"hotelId":19709,"hotelName":"Eurostars Toledo","street":"Paseo San Eugenio s/n","zip":45003,"regionId":186157,"regionName":"Toledo","regionParent":"Castille-La Mancha","countryName":"Spain","latitude":39.872,"longitude":-4.023,"rating":4,"photoUrl":"http://www.sletoh.com/photo/1/28359.jpg","price":16763},{"hotelId":53630,"hotelName":"Garnish House","street":"Western Road","zip":"","regionId":18881,"regionName":"Cork","regionParent":"County Cork","countryName":"Ireland","latitude":51.895,"longitude":-8.488,"rating":3,"photoUrl":"http://www.sletoh.com/photo/1/69528.jpg","price":24943},{"hotelId":39301,"hotelName":"Mignon Posta Hotel","street":"Via M Boccoleri 12","zip":16035,"regionId":203797,"regionName":"Rapallo","regionParent":"Liguria","countryName":"Italy","latitude":44.348,"longitude":9.2274,"rating":2,"photoUrl":"http://www.sletoh.com/photo/1/52628.jpg","price":23662},{"hotelId":43158,"hotelName":"Mercure Hotel Harbourside","street":"209-217 The Esplanade","zip":4870,"regionId":285833,"regionName":"Cairns","regionParent":"Queensland","countryName":"Australia","latitude":-16.9,"longitude":145.76,"rating":4,"photoUrl":"http://www.sletoh.com/photo/4/134648.jpg","price":12890},{"hotelId":56180,"hotelName":"BS Hotel","street":"Hamburger Str. 38","zip":38114,"regionId":33088,"regionName":"Braunschweig","regionParent":"Lower Saxony","countryName":"Germany","latitude":52.28,"longitude":10.518,"rating":"","photoUrl":"http://www.sletoh.com/photo/1/73392.jpg","price":6902},{"hotelId":44823,"hotelName":"Ahmet Efendi Evi","street":"Keresteci Hakki Sokak No.31 Cankurtaran Mahallesi","zip":34122,"regionId":334636,"regionName":"Istanbul","regionParent":"Marmara Region","countryName":"Turkey","latitude":41.003,"longitude":28.98,"rating":3,"photoUrl":"http://www.sletoh.com/photo/1/56592.jpg","price":8504},{"hotelId":55388,"hotelName":"Mercure Angouleme Nord","street":"Route de Paris","zip":16430,"regionId":112015,"regionName":"Champniers","regionParent":"Poitou-Charentes","countryName":"France","latitude":45.68,"longitude":0.1774,"rating":3,"photoUrl":"http://www.sletoh.com/photo/1/71993.jpg","price":24154},{"hotelId":38104,"hotelName":"Landhuis Hotel de Herikerberg","street":"Goorseweg 58","zip":"7475 BE","regionId":264999,"regionName":"Markelo","regionParent":"Overijssel","countryName":"Netherlands","latitude":52.233,"longitude":6.5404,"rating":4,"photoUrl":"http://www.sletoh.com/photo/1/50769.jpg","price":12045},{"hotelId":52618,"hotelName":"Elite Hotel Residens","street":"Adelgatan 7","zip":"211 22","regionId":362088,"regionName":"Malmo","regionParent":"Scania","countryName":"Sweden","latitude":55.607,"longitude":13.001,"rating":4,"photoUrl":"http://www.sletoh.com/photo/1/65070.jpg","price":7778},{"hotelId":9880,"hotelName":"TOP Hotel Goldenes Fass","street":"Ansbacher Strasse 39","zip":91541,"regionId":83284,"regionName":"Rothenburg ob der Tauber","regionParent":"Bavaria","countryName":"Germany","latitude":49.375,"longitude":10.191,"rating":3,"photoUrl":"http://www.sletoh.com/photo/1/13083.jpg","price":17298},{"hotelId":71184,"hotelName":"Yeni Acun Aparthotel","street":"Anahta Cikmazi 3","zip":"07400","regionId":295632,"regionName":"Alanya","regionParent":"Mediterranean Region","countryName":"Turkey","latitude":36.56,"longitude":32.002,"rating":3,"photoUrl":"http://www.sletoh.com/photo/14/471836.jpg","price":19491},{"hotelId":27384,"hotelName":"Boscolo Hotel Palace Rome","street":"Via Vittorio Veneto 70","zip":187,"regionId":204329,"regionName":"Rome","regionParent":"Lazio","countryName":"Italy","latitude":41.907,"longitude":12.489,"rating":4,"photoUrl":"http://www.sletoh.com/photo/1/38739.jpg","price":13585},{"hotelId":12720,"hotelName":"Kenilworth Hotel","street":"583 New South Promenade","zip":"FY4 1NG","regionId":16250,"regionName":"Blackpool","regionParent":"North West","countryName":"UK","latitude":53.786,"longitude":-3.057,"rating":"","photoUrl":"http://www.sletoh.com/photo/1/17965.jpg","price":20112},{"hotelId":57227,"hotelName":"Barleycorn Inn","street":"","zip":"SN8 3SD","regionId":4285,"regionName":"Collingbourne Kingston","regionParent":"South West","countryName":"UK","latitude":51.299,"longitude":-1.658,"rating":3,"photoUrl":"http://www.sletoh.com/photo/3/253880.jpg","price":23087},{"hotelId":27192,"hotelName":"Desire'","street":"Viale C. Battisti, 33","zip":47838,"regionId":203953,"regionName":"Riccione","regionParent":"Emilia-Romagna","countryName":"Italy","latitude":43.997,"longitude":12.661,"rating":"","photoUrl":"http://www.sletoh.com/photo/1/38456.jpg","price":14134},{"hotelId":15168,"hotelName":"Hotel de la Vendee","street":"4 Rue Malesherbes","zip":85000,"regionId":127627,"regionName":"La Roche-sur-Yon","regionParent":"Pays de la Loire","countryName":"France","latitude":46.669,"longitude":-1.423,"rating":2,"photoUrl":"http://www.sletoh.com/photo/1/21266.jpg","price":20764},{"hotelId":8846,"hotelName":"Garni Hotel Rodelheimer Hof","street":"Friedrich-Kahl-Str. 22a","zip":60489,"regionId":24642,"regionName":"Frankfurt","regionParent":"Hessen","countryName":"Germany","latitude":50.132,"longitude":8.5933,"rating":2,"photoUrl":"http://www.sletoh.com/photo/1/11975.jpg","price":15852},{"hotelId":20259,"hotelName":"Ipanema Park Hotel","street":"Antonio Maria Alcover 11","zip":"07600","regionId":182951,"regionName":"Arenal","regionParent":"Mallorca","countryName":"Spain","latitude":39.498,"longitude":2.7537,"rating":3,"photoUrl":"http://www.sletoh.com/photo/1/29001.jpg","price":6711},{"hotelId":19357,"hotelName":"I Hotel Madrid","street":"Virgilio 4 (Ciudad de la Imagen)","zip":28224,"regionId":181307,"regionName":"Pozuelo de Alarcon","regionParent":"Madrid","countryName":"Spain","latitude":40.397,"longitude":-3.792,"rating":4,"photoUrl":"http://www.sletoh.com/photo/1/28059.jpg","price":8715},{"hotelId":56540,"hotelName":"Berghof","street":"Moorbadstrasse 21","zip":87642,"regionId":34402,"regionName":"Buching","regionParent":"Bavaria","countryName":"Germany","latitude":47.628,"longitude":10.797,"rating":3,"photoUrl":"http://www.sletoh.com/photo/1/74017.jpg","price":22319},{"hotelId":3723,"hotelName":"Radisson SAS Portman Hotel","street":"22 Portman Square","zip":"W1H 7BG","regionId":7183,"regionName":"London","regionParent":"Greater London","countryName":"UK","latitude":51.515,"longitude":-0.156,"rating":4,"photoUrl":"http://www.sletoh.com/photo/15/566877.jpg","price":22937},{"hotelId":4165,"hotelName":"Foyers House","street":"","zip":"IV2 6XU","regionId":6297,"regionName":"Foyers","regionParent":"Scotland","countryName":"UK","latitude":57.252,"longitude":-4.488,"rating":"","photoUrl":"http://www.sletoh.com/photo/1/5953.jpg","price":21964},{"hotelId":29695,"hotelName":"Patria Palace Hotel","street":"Piazzetta Riccardi 13","zip":73100,"regionId":198770,"regionName":"Lecce","regionParent":"Apulia","countryName":"Italy","latitude":40.354,"longitude":18.172,"rating":5,"photoUrl":"http://www.sletoh.com/photo/1/41347.jpg","price":8562},{"hotelId":35915,"hotelName":"Notre Dame Hotel","street":"Mariastraat 3","zip":8000,"regionId":233184,"regionName":"Bruges","regionParent":"West Flanders","countryName":"Belgium","latitude":51.206,"longitude":3.2233,"rating":1,"photoUrl":"http://www.sletoh.com/photo/1/47164.jpg","price":7535},{"hotelId":69733,"hotelName":"Alpenblick","street":"Aegerten","zip":3825,"regionId":230540,"regionName":"Murren","regionParent":"Kanton Bern","countryName":"Switzerland","latitude":46.565,"longitude":7.8972,"rating":2,"photoUrl":"http://www.sletoh.com/photo/1/603641.jpg","price":24476},{"hotelId":62175,"hotelName":"Castle Grove Country House Hotel","street":"Ard Drummond Rd/ off Ramelton/Milford RD R245","zip":"","regionId":21611,"regionName":"Letterkenny","regionParent":"County Donegal","countryName":"Ireland","latitude":54.988,"longitude":-7.655,"rating":4,"photoUrl":"http://www.sletoh.com/photo/1/610038.jpg","price":17503},{"hotelId":60708,"hotelName":"Jagerhof Hubertus","street":"Interlakenstrasse 136","zip":3705,"regionId":229769,"regionName":"Faulensee","regionParent":"Kanton Bern","countryName":"Switzerland","latitude":46.671,"longitude":7.7086,"rating":2,"photoUrl":"http://www.sletoh.com/photo/1/328364.jpg","price":10182},{"hotelId":46710,"hotelName":"La Sommellerie","street":"Route De Roquemaure","zip":84230,"regionId":112669,"regionName":"Chateauneuf-du-Pape","regionParent":"Provence-Alpes-Cote d'Azur","countryName":"France","latitude":44.061,"longitude":4.8,"rating":3,"photoUrl":"http://www.sletoh.com/photo/1/58405.jpg","price":24047},{"hotelId":25971,"hotelName":"Conca Azzurra","street":"Via C. Alberto 53","zip":21020,"regionId":203783,"regionName":"Ranco","regionParent":"Lombardy","countryName":"Italy","latitude":45.798,"longitude":8.5759,"rating":3,"photoUrl":"http://www.sletoh.com/photo/1/36662.jpg","price":7480},{"hotelId":69661,"hotelName":"Isabel Apartments","street":"Cesar Manrique","zip":35510,"regionId":181584,"regionName":"Puerto del Carmen","regionParent":"Lanzarote","countryName":"Spain","latitude":28.924,"longitude":-13.65,"rating":2,"photoUrl":"http://www.sletoh.com/photo/1/611478.jpg","price":20476},{"hotelId":72624,"hotelName":"Plaza Mayor Apartments","street":"Navio, 9","zip":"03710","regionId":165777,"regionName":"Calpe","regionParent":"Valencian Community","countryName":"Spain","latitude":38.643,"longitude":0.0467,"rating":"","photoUrl":"http://localhost/platform/photo/1/706003.jpg","price":16245},{"hotelId":49648,"hotelName":"Barton House","street":"26 Barton Avenue","zip":"FY1 6AP","regionId":16250,"regionName":"Blackpool","regionParent":"North West","countryName":"UK","latitude":53.804,"longitude":-3.053,"rating":2,"photoUrl":"http://www.sletoh.com/photo/3/158679.jpg","price":19142},{"hotelId":66485,"hotelName":"Mantra on Murray Perth","street":"297-305 Murray Street","zip":6000,"regionId":291173,"regionName":"Perth","regionParent":"Western Australia","countryName":"Australia","latitude":-31.95,"longitude":115.85,"rating":4,"photoUrl":"http://localhost/platform/photo/15/665746.jpg","price":21396},{"hotelId":22355,"hotelName":"Schluters Gasthof","street":"Dorfstrasse 14","zip":24601,"regionId":97320,"regionName":"Wankendorf","regionParent":"Schleswig-Holstein","countryName":"Germany","latitude":54.115,"longitude":10.203,"rating":"","photoUrl":"http://www.sletoh.com/photo/1/31784.jpg","price":24953},{"hotelId":51559,"hotelName":"Posada La Torre De La Quintana","street":"Barrio De Hazas, 25","zip":39776,"regionId":172448,"regionName":"Hazas","regionParent":"Cantabria","countryName":"Spain","latitude":43.389,"longitude":-3.369,"rating":"","photoUrl":"http://www.sletoh.com/photo/1/64430.jpg","price":13746},{"hotelId":33902,"hotelName":"Brandon Inn Hotel","street":"Princes Street 1","zip":1,"regionId":23733,"regionName":"Tralee","regionParent":"County Kerry","countryName":"Ireland","latitude":52.269,"longitude":-9.71,"rating":3,"photoUrl":"http://www.sletoh.com/photo/4/121377.jpg","price":5466},{"hotelId":44444,"hotelName":"Sunny Garden Nilufer Hotel","street":"Karaincir","zip":48400,"regionId":295411,"regionName":"Akyarlar","regionParent":"Aegean Region","countryName":"Turkey","latitude":36.976,"longitude":27.303,"rating":3,"photoUrl":"http://www.sletoh.com/photo/1/56027.jpg","price":18224},{"hotelId":28668,"hotelName":"Al Palazzo Lion Morosini","street":"Cannareggio S.G. Grisostomo 5704/b","zip":30131,"regionId":208739,"regionName":"Venice","regionParent":"Veneto","countryName":"Italy","latitude":45.439,"longitude":12.337,"rating":"","photoUrl":"http://www.sletoh.com/photo/1/40701.jpg","price":7366},{"hotelId":60924,"hotelName":"Turisticos Rio Marinas Apartments","street":"N-340, Km 289, 5","zip":29780,"regionId":178935,"regionName":"Nerja","regionParent":"Andalusia","countryName":"Spain","latitude":36.745,"longitude":-3.893,"rating":2,"photoUrl":"http://www.sletoh.com/photo/1/326562.jpg","price":6152},{"hotelId":41529,"hotelName":"Angel at Burford","street":"14, Witney StreetBurford","zip":"OX18 4LR","regionId":3246,"regionName":"Burford","regionParent":"South East","countryName":"UK","latitude":51.807,"longitude":-1.635,"rating":3,"photoUrl":"http://www.sletoh.com/photo/3/239305.jpg","price":20344},{"hotelId":56893,"hotelName":"Tuvana Hotel","street":"Tuzcular Mah.Karanlik Sok. No:18","zip":"07100","regionId":296122,"regionName":"Antalya","regionParent":"Mediterranean Region","countryName":"Turkey","latitude":36.885,"longitude":30.705,"rating":4,"photoUrl":"http://www.sletoh.com/photo/1/262300.jpg","price":22207},{"hotelId":22494,"hotelName":"Las Lomas Hotel","street":"Avda. Reina Sofia, 78","zip":"06800","regionId":177644,"regionName":"Merida","regionParent":"Estremadura","countryName":"Spain","latitude":38.923,"longitude":-6.326,"rating":4,"photoUrl":"http://www.sletoh.com/photo/1/31926.jpg","price":12582},{"hotelId":47088,"hotelName":"Hotel und Gastehaus Kreuz","street":"Marktstr. 6","zip":72501,"regionId":43713,"regionName":"Gammertingen","regionParent":"Baden Wurttemberg","countryName":"Germany","latitude":48.307,"longitude":9.2429,"rating":3,"photoUrl":"http://www.sletoh.com/photo/1/59025.jpg","price":12658},{"hotelId":61077,"hotelName":"Lands of Loyal Hotel","street":"Lands of Loyal Hotel, Loyal road","zip":"PH11 8JQ","regionId":1370,"regionName":"Alyth","regionParent":"Scotland","countryName":"UK","latitude":56.629,"longitude":-3.227,"rating":4,"photoUrl":"http://www.sletoh.com/photo/3/332589.jpg","price":15472},{"hotelId":75739,"hotelName":"Alcossebre Suites","street":"Cami d'Atall no 64","zip":12579,"regionId":161915,"regionName":"Alcoceber","regionParent":"Valencian Community","countryName":"Spain","latitude":40.239,"longitude":0.2741,"rating":2,"photoUrl":"http://localhost/platform/photo/1/706179.jpg","price":17075},{"hotelId":50701,"hotelName":"Vedema Resort","street":"Main Street","zip":84700,"regionId":341975,"regionName":"Megalochori","regionParent":"Santorini","countryName":"Greece","latitude":36.375,"longitude":25.425,"rating":5,"photoUrl":"http://www.sletoh.com/photo/1/63949.jpg","price":18528},{"hotelId":30393,"hotelName":"Cappabhaile House","street":"Ballyvaughan","zip":"","regionId":17375,"regionName":"Ballyvaghan","regionParent":"County Clare","countryName":"Ireland","latitude":53.127,"longitude":-9.091,"rating":3,"photoUrl":"http://www.sletoh.com/photo/1/265844.jpg","price":11299},{"hotelId":58175,"hotelName":"Casa D'Obidos","street":"Quinta Sao Jose","zip":"2510-135","regionId":253990,"regionName":"Obidos","regionParent":"Leiria","countryName":"Portugal","latitude":39.367,"longitude":-9.149,"rating":"","photoUrl":"http://www.sletoh.com/photo/1/267122.jpg","price":18392},{"hotelId":48294,"hotelName":"Event- hle","street":"Grosshecker Weg 31","zip":51503,"regionId":80432,"regionName":"Rosrath","regionParent":"North Rhine-Westphalia","countryName":"Germany","latitude":50.899,"longitude":7.2101,"rating":"","photoUrl":"http://www.sletoh.com/photo/1/60975.jpg","price":7005},{"hotelId":52665,"hotelName":"Grand Hotel Saltsjobaden","street":"Hotellvagen 1","zip":13383,"regionId":367492,"regionName":"Saltsjobaden","regionParent":"Stockholms Lan","countryName":"Sweden","latitude":59.277,"longitude":18.313,"rating":4,"photoUrl":"http://www.sletoh.com/photo/1/65142.jpg","price":18915},{"hotelId":32587,"hotelName":"Mercure Parc De L'europe","street":"Rue Wuppertal","zip":42100,"regionId":149890,"regionName":"Saint-Etienne","regionParent":"Rhone-Alpes","countryName":"France","latitude":45.419,"longitude":4.4162,"rating":3,"photoUrl":"http://www.sletoh.com/photo/1/69905.jpg","price":17586},{"hotelId":27241,"hotelName":"Pisana Palace Hotel","street":"Via Della Pisana 374","zip":163,"regionId":204329,"regionName":"Rome","regionParent":"Lazio","countryName":"Italy","latitude":41.868,"longitude":12.412,"rating":4,"photoUrl":"http://www.sletoh.com/photo/4/118317.jpg","price":21421},{"hotelId":35731,"hotelName":"Capri Palace Spa Hotel","street":"Via Capodimonte,2b Ana","zip":80071,"regionId":192987,"regionName":"Capri","regionParent":"Campania","countryName":"Italy","latitude":40.555,"longitude":14.221,"rating":5,"photoUrl":"http://www.sletoh.com/photo/7/145520.jpg","price":8688},{"hotelId":38947,"hotelName":"Palym Hotel","street":"4 Rue Emile Gilbert","zip":75012,"regionId":143798,"regionName":"Paris","regionParent":"Ile-de-France","countryName":"France","latitude":48.846,"longitude":2.3733,"rating":2,"photoUrl":"http://www.sletoh.com/photo/1/52055.jpg","price":21768},{"hotelId":14120,"hotelName":"Clarion Hotel Cloitre Saint Louis Avignon","street":"20, Rue du Portail Boquier","zip":84000,"regionId":105295,"regionName":"Avignon","regionParent":"Provence-Alpes-Cote d'Azur","countryName":"France","latitude":43.943,"longitude":4.8044,"rating":4,"photoUrl":"http://www.sletoh.com/photo/7/139387.jpg","price":22821},{"hotelId":54110,"hotelName":"Hospederia Valle del Ambroz","street":"Plaza del Hospital s/n","zip":10700,"regionId":172552,"regionName":"Hervas","regionParent":"Estremadura","countryName":"Spain","latitude":40.273,"longitude":-5.86,"rating":4,"photoUrl":"http://www.sletoh.com/photo/1/66586.jpg","price":7075},{"hotelId":51636,"hotelName":"Fishponds House","street":"FISHPONDS HOUSE, Dunkeswell","zip":"EX14 4SH","regionId":5357,"regionName":"Dunkeswell","regionParent":"South West","countryName":"UK","latitude":50.865,"longitude":-3.219,"rating":3,"photoUrl":"http://www.sletoh.com/photo/1/69129.jpg","price":24616},{"hotelId":64193,"hotelName":"Atlantic Hotel","street":"44 Rue De Londres","zip":75008,"regionId":143798,"regionName":"Paris","regionParent":"Ile-de-France","countryName":"France","latitude":48.878,"longitude":2.3239,"rating":3,"photoUrl":"http://www.sletoh.com/photo/12/404536.jpg","price":20645},{"hotelId":17417,"hotelName":"Inter - Hotel Restaurant De L'horloge","street":"1 Route De Marchaux","zip":25000,"regionId":107260,"regionName":"Besancon","regionParent":"Franche-Comte","countryName":"France","latitude":47.263,"longitude":6.0522,"rating":2,"photoUrl":"http://www.sletoh.com/photo/3/185708.jpg","price":11350},{"hotelId":66252,"hotelName":"Realm Hotel","street":"18 National Circuit","zip":2600,"regionId":285911,"regionName":"Canberra","regionParent":"Australian Capital Territory","countryName":"Australia","latitude":-35.31,"longitude":149.13,"rating":3,"photoUrl":"http://www.sletoh.com/photo/15/529912.jpg","price":17888},{"hotelId":4585,"hotelName":"Casa Dei Cesari Hotel","street":"Handford Lane","zip":"GU46 6BT","regionId":12855,"regionName":"Sandhurst","regionParent":"South East","countryName":"UK","latitude":51.333,"longitude":-0.826,"rating":3,"photoUrl":"http://www.sletoh.com/photo/1/6613.jpg","price":20889},{"hotelId":43414,"hotelName":"InterContinental Sydney","street":"117 Macquarie Street","zip":2000,"regionId":292279,"regionName":"Sydney","regionParent":"New South Wales","countryName":"Australia","latitude":-33.86,"longitude":151.21,"rating":5,"photoUrl":"http://www.sletoh.com/photo/4/289503.jpg","price":13744},{"hotelId":35236,"hotelName":"Forte Hotel","street":"Lungomare Europa","zip":71019,"regionId":208926,"regionName":"Vieste","regionParent":"Apulia","countryName":"Italy","latitude":41.885,"longitude":16.17,"rating":4,"photoUrl":"http://www.sletoh.com/photo/1/46800.jpg","price":10316},{"hotelId":18597,"hotelName":"Reina Cristina","street":"Tablas 4","zip":18002,"regionId":172149,"regionName":"Granada","regionParent":"Andalusia","countryName":"Spain","latitude":37.175,"longitude":-3.603,"rating":3,"photoUrl":"http://www.sletoh.com/photo/1/26278.jpg","price":7577},{"hotelId":23746,"hotelName":"Caballero Errante","street":"Pinos Alta, 14","zip":28029,"regionId":176804,"regionName":"Madrid","regionParent":"Madrid","countryName":"Spain","latitude":40.465,"longitude":-3.695,"rating":3,"photoUrl":"http://www.sletoh.com/photo/1/33319.jpg","price":23940},{"hotelId":36179,"hotelName":"Hotel De La Gare","street":"Principale Nd34","zip":4190,"regionId":234779,"regionName":"Ferrieres","regionParent":"Liege","countryName":"Belgium","latitude":50.405,"longitude":5.5251,"rating":2,"photoUrl":"http://www.sletoh.com/photo/1/47599.jpg","price":23933},{"hotelId":6648,"hotelName":"Hope Anchor","street":"Watch Bell street","zip":"TN31 7HA","regionId":12633,"regionName":"Rye","regionParent":"South East","countryName":"UK","latitude":50.949,"longitude":0.7349,"rating":3,"photoUrl":"http://www.sletoh.com/photo/1/8223.jpg","price":9324},{"hotelId":8058,"hotelName":"A&amp;O Hotel Mitte","street":"Koepenicker Str. 127","zip":10179,"regionId":30675,"regionName":"Berlin","regionParent":"Berlin","countryName":"Germany","latitude":52.509,"longitude":13.423,"rating":2,"photoUrl":"http://www.sletoh.com/photo/1/9769.jpg","price":7604},{"hotelId":56218,"hotelName":"Ockenheim Hotel","street":"Hindenburgplatz 9","zip":55437,"regionId":75881,"regionName":"Ockenheim","regionParent":"Rhineland-Palatinate","countryName":"Germany","latitude":49.945,"longitude":7.9684,"rating":3,"photoUrl":"http://www.sletoh.com/photo/1/73457.jpg","price":6903},{"hotelId":8710,"hotelName":"Plaza Hotel","street":"Dusseldorfer Strasse 54","zip":47051,"regionId":38185,"regionName":"Duisburg","regionParent":"North Rhine-Westphalia","countryName":"Germany","latitude":51.396,"longitude":6.6576,"rating":3,"photoUrl":"http://www.sletoh.com/photo/1/10934.jpg","price":13465},{"hotelId":58817,"hotelName":"Alla Dimora Lucense","street":"Via Fontana Nd 17/19/21","zip":55100,"regionId":199108,"regionName":"Lucca","regionParent":"Tuscany","countryName":"Italy","latitude":43.84,"longitude":10.504,"rating":"","photoUrl":"http://www.sletoh.com/photo/1/266227.jpg","price":18883},{"hotelId":10590,"hotelName":"Bismarck Hotel","street":"Bismarckstrasse 97","zip":40210,"regionId":36437,"regionName":"Dusseldorf","regionParent":"North Rhine-Westphalia","countryName":"Germany","latitude":51.22,"longitude":6.7904,"rating":3,"photoUrl":"http://www.sletoh.com/photo/1/14356.jpg","price":23365},{"hotelId":11294,"hotelName":"Kocks Hotel garni","street":"Langenhorner Chaussee 79","zip":22415,"regionId":43447,"regionName":"Fuhlsbuttel","regionParent":"Hamburg","countryName":"Germany","latitude":53.639,"longitude":10.013,"rating":3,"photoUrl":"http://www.sletoh.com/photo/1/15585.jpg","price":23147},{"hotelId":61582,"hotelName":"Rodos Princess","street":"Kiotari","zip":85109,"regionId":341084,"regionName":"Lardos","regionParent":"Rhodes","countryName":"Greece","latitude":36.063,"longitude":27.989,"rating":4,"photoUrl":"http://www.sletoh.com/photo/7/355010.jpg","price":20015},{"hotelId":33643,"hotelName":"Apparthotel Montana","street":"Thorl 53","zip":8983,"regionId":217521,"regionName":"Mitterndorf im Steirischen Salzkammergut","regionParent":"Styria","countryName":"Austria","latitude":47.55,"longitude":13.947,"rating":4,"photoUrl":"http://www.sletoh.com/photo/3/299656.jpg","price":23856},{"hotelId":27850,"hotelName":"Holiday Inn Bologna San Lazzaro","street":"Via Emilia Levante 514","zip":40068,"regionId":205217,"regionName":"San Lazzaro di Savena","regionParent":"Emilia-Romagna","countryName":"Italy","latitude":44.452,"longitude":11.455,"rating":4,"photoUrl":"http://localhost/platform/photo/1/728474.jpg","price":16525},{"hotelId":24009,"hotelName":"Hotel la Pioppa","street":"Via Marco Emilio Lepido 215","zip":40132,"regionId":191703,"regionName":"Bologna","regionParent":"Emilia-Romagna","countryName":"Italy","latitude":44.526,"longitude":11.247,"rating":3,"photoUrl":"http://www.sletoh.com/photo/1/33644.jpg","price":13293},{"hotelId":73799,"hotelName":"Portonovo Hotel","street":"Rua Alegre no3, Portonovo - Sanxenxo","zip":36970,"regionId":161502,"regionName":"Adigna","regionParent":"Galicia","countryName":"Spain","latitude":42.394,"longitude":-8.829,"rating":2,"photoUrl":"http://localhost/platform/photo/3/627511.jpg","price":21473},{"hotelId":67370,"hotelName":"Ibis Mulhouse Ville Gare Centre","street":"53 Rud De Bale","zip":68100,"regionId":141764,"regionName":"Mulhouse","regionParent":"Alsace","countryName":"France","latitude":47.747,"longitude":7.3461,"rating":2,"photoUrl":"http://localhost/platform/photo/1/705818.jpg","price":9390},{"hotelId":24852,"hotelName":"Varsavia Hotel","street":"Via Panzani 5","zip":50123,"regionId":196899,"regionName":"Florence","regionParent":"Tuscany","countryName":"Italy","latitude":43.774,"longitude":11.251,"rating":2,"photoUrl":"http://www.sletoh.com/photo/1/34885.jpg","price":19035},{"hotelId":55813,"hotelName":"Parkhotel Schloss Wulkow","street":"Hauptstrasse 24","zip":15320,"regionId":71520,"regionName":"Neuhardenberg","regionParent":"Brandenburg","countryName":"Germany","latitude":52.571,"longitude":14.229,"rating":4,"photoUrl":"http://www.sletoh.com/photo/1/72725.jpg","price":17884},{"hotelId":42671,"hotelName":"Alesia","street":"4 Rue De La Sabliere","zip":21200,"regionId":106472,"regionName":"Beaune","regionParent":"Bourgogne","countryName":"France","latitude":47.034,"longitude":4.8445,"rating":2,"photoUrl":"http://www.sletoh.com/photo/1/55816.jpg","price":13207},{"hotelId":65129,"hotelName":"Thisvi Hotel","street":"Agiou Ioanou 201","zip":70007,"regionId":345508,"regionName":"Stalis","regionParent":"Crete","countryName":"Greece","latitude":35.292,"longitude":25.418,"rating":2,"photoUrl":"http://www.sletoh.com/photo/1/608301.jpg","price":9983},{"hotelId":44688,"hotelName":"Adora Hotel","street":"Hudavandigar, Gulhane, Sultanahmet","zip":34800,"regionId":334636,"regionName":"Istanbul","regionParent":"Marmara Region","countryName":"Turkey","latitude":41.012,"longitude":28.978,"rating":3,"photoUrl":"http://www.sletoh.com/photo/1/56372.jpg","price":11169},{"hotelId":42456,"hotelName":"Helvetia Intergolf Hotel","street":"Route de la Moubra 8","zip":3963,"regionId":225765,"regionName":"Crans Montana","regionParent":"Canton du Valais","countryName":"Switzerland","latitude":46.31,"longitude":7.4834,"rating":4,"photoUrl":"http://www.sletoh.com/photo/1/68711.jpg","price":14378},{"hotelId":35359,"hotelName":"City Suites Lyon Gerland Hotel","street":"175 Avenue Jean Jaures","zip":69007,"regionId":137211,"regionName":"Lyon","regionParent":"Rhone-Alpes","countryName":"France","latitude":45.737,"longitude":4.837,"rating":3,"photoUrl":"http://www.sletoh.com/photo/7/145427.jpg","price":11352},{"hotelId":40621,"hotelName":"Residencial Bom Sucesso","street":"Largo Antunes Lima","zip":"4730-450","regionId":255839,"regionName":"Prado","regionParent":"Braga","countryName":"Portugal","latitude":41.597,"longitude":-8.465,"rating":"","photoUrl":"http://www.sletoh.com/photo/1/54046.jpg","price":19127},{"hotelId":20606,"hotelName":"Els Pins","street":"Nostra Senyora Del Carme, 34-36","zip":17250,"regionId":165776,"regionName":"Calonge","regionParent":"Catalonia","countryName":"Spain","latitude":41.818,"longitude":3.0692,"rating":3,"photoUrl":"http://www.sletoh.com/photo/1/30008.jpg","price":14883},{"hotelId":50219,"hotelName":"Lydia Maris Hotel","street":"","zip":85103,"regionId":347110,"regionName":"Kolymbia","regionParent":"Rhodes","countryName":"Greece","latitude":36.254,"longitude":28.163,"rating":4,"photoUrl":"http://www.sletoh.com/photo/1/63386.jpg","price":23693},{"hotelId":46971,"hotelName":"Oehler Hotel","street":"Liebigstr. 6-8","zip":45145,"regionId":41023,"regionName":"Essen","regionParent":"North Rhine-Westphalia","countryName":"Germany","latitude":51.448,"longitude":6.9819,"rating":"","photoUrl":"http://www.sletoh.com/photo/1/58837.jpg","price":5250},{"hotelId":41308,"hotelName":"Y Llwyn Guest House","street":"LlandrilloCorwen","zip":"LL21 0ST","regionId":9403,"regionName":"Llandrillo","regionParent":"Wales","countryName":"UK","latitude":52.921,"longitude":-3.438,"rating":4,"photoUrl":"http://www.sletoh.com/photo/3/238251.jpg","price":10426},{"hotelId":36278,"hotelName":"Aux Ecuries De La Reine","street":"La Gleize 23","zip":4987,"regionId":237765,"regionName":"La Gleize","regionParent":"Liege","countryName":"Belgium","latitude":50.413,"longitude":5.8451,"rating":"","photoUrl":"http://www.sletoh.com/photo/1/47761.jpg","price":12454},{"hotelId":22780,"hotelName":"Gasthof-Hotel zum Ochsen","street":"Marktplatz 9","zip":78120,"regionId":24643,"regionName":"Furtwangen im Schwarzwald","regionParent":"Baden Wurttemberg","countryName":"Germany","latitude":48.052,"longitude":8.2063,"rating":3,"photoUrl":"http://www.sletoh.com/photo/1/32346.jpg","price":7510},{"hotelId":10176,"hotelName":"Rasthaus Seligweiler Hotel","street":"An der A8, Ausfahrt Ulm-Ost","zip":89081,"regionId":93895,"regionName":"Ulm","regionParent":"Baden Wurttemberg","countryName":"Germany","latitude":48.457,"longitude":10.03,"rating":3,"photoUrl":"http://www.sletoh.com/photo/1/13617.jpg","price":16828},{"hotelId":43707,"hotelName":"Medusa","street":"267 Darlinghurst Road","zip":2010,"regionId":292279,"regionName":"Sydney","regionParent":"New South Wales","countryName":"Australia","latitude":-33.87,"longitude":151.22,"rating":2,"photoUrl":"http://www.sletoh.com/photo/15/584464.jpg","price":22023},{"hotelId":3103,"hotelName":"Beardmore Conference Hotel","street":"Beardmore Street","zip":"G81 4SA","regionId":4177,"regionName":"Clydebank","regionParent":"Scotland","countryName":"UK","latitude":55.905,"longitude":-4.426,"rating":4,"photoUrl":"http://www.sletoh.com/photo/1/4362.jpg","price":10678},{"hotelId":33633,"hotelName":"Kranzbichlhof Hotel","street":"Hofgasse 12","zip":5422,"regionId":211628,"regionName":"Durrnberg","regionParent":"Salzburg","countryName":"Austria","latitude":47.66,"longitude":13.091,"rating":4,"photoUrl":"http://www.sletoh.com/photo/12/437320.jpg","price":12018},{"hotelId":50574,"hotelName":"Sunset Hotel","street":"Main Street","zip":84700,"regionId":347238,"regionName":"Firostefani","regionParent":"Santorini","countryName":"Greece","latitude":36.425,"longitude":25.426,"rating":3,"photoUrl":"http://www.sletoh.com/photo/1/63750.jpg","price":8076},{"hotelId":52066,"hotelName":"Manor House at The Celtic Manor Resort","street":"Coldra Woods, The Usk Valley","zip":"NP18 1HQ","regionId":3977,"regionName":"Christchurch","regionParent":"Wales","countryName":"UK","latitude":51.601,"longitude":-2.931,"rating":4,"photoUrl":"http://www.sletoh.com/photo/3/251028.jpg","price":11063},{"hotelId":32668,"hotelName":"Malaspina","street":"Piazza Dell' Indipendenza 24","zip":50129,"regionId":196899,"regionName":"Florence","regionParent":"Tuscany","countryName":"Italy","latitude":43.78,"longitude":11.255,"rating":3,"photoUrl":"http://www.sletoh.com/photo/4/120585.jpg","price":10856},{"hotelId":39024,"hotelName":"Hotel zur Herberge","street":"Hohe Wende 14","zip":29223,"regionId":35154,"regionName":"Celle","regionParent":"Lower Saxony","countryName":"Germany","latitude":52.639,"longitude":10.081,"rating":"","photoUrl":"http://www.sletoh.com/photo/1/52179.jpg","price":14618},{"hotelId":7841,"hotelName":"Domina Park Hotel","street":"Kurhausstr. 28","zip":55543,"regionId":28276,"regionName":"Bad Kreuznach","regionParent":"Rhineland-Palatinate","countryName":"Germany","latitude":49.84,"longitude":7.8548,"rating":4,"photoUrl":"http://www.sletoh.com/photo/1/9471.jpg","price":14043},{"hotelId":64071,"hotelName":"Atlas","street":"Marche Aux Grains 30","zip":1000,"regionId":233221,"regionName":"Brussels","regionParent":"Brussels-Capital Region","countryName":"Belgium","latitude":50.849,"longitude":4.3459,"rating":3,"photoUrl":"http://www.sletoh.com/photo/12/361755.jpg","price":17290},{"hotelId":73741,"hotelName":"NH The Lord Charles","street":"Corner Faure And Stellenbosch Roads","zip":7130,"regionId":376224,"regionName":"Cape Town","regionParent":"Western Cape","countryName":"South Africa","latitude":-34.07,"longitude":18.844,"rating":4,"photoUrl":"http://www.sletoh.com/photo/15/530617.jpg","price":18983},{"hotelId":64466,"hotelName":"Simonshof Hotel","street":"Braunschweiger Strasse 200","zip":38444,"regionId":101455,"regionName":"Wolfsburg","regionParent":"Lower Saxony","countryName":"Germany","latitude":52.4,"longitude":10.752,"rating":3,"photoUrl":"http://www.sletoh.com/photo/12/440092.jpg","price":6481},{"hotelId":5019,"hotelName":"Willowsmere","street":"Ambleside Road","zip":"LA23 1ES","regionId":15847,"regionName":"Windermere","regionParent":"North West","countryName":"UK","latitude":54.386,"longitude":-2.915,"rating":4,"photoUrl":"http://www.sletoh.com/photo/1/7236.jpg","price":20794},{"hotelId":60974,"hotelName":"Whitburn House Hotel","street":"111 Garstang Road, Fulwood","zip":"PR2 3EB","regionId":12044,"regionName":"Preston","regionParent":"North West","countryName":"UK","latitude":53.777,"longitude":-2.71,"rating":3,"photoUrl":"http://www.sletoh.com/photo/3/331074.jpg","price":8180},{"hotelId":5802,"hotelName":"Devonshire Park Hotel","street":"Carlisle Road","zip":"BN21 4JR","regionId":5586,"regionName":"Eastbourne","regionParent":"South East","countryName":"UK","latitude":50.761,"longitude":0.2744,"rating":3,"photoUrl":"http://www.sletoh.com/photo/1/7661.jpg","price":13087},{"hotelId":46075,"hotelName":"Stella Hotel","street":"Via Castelfidardo , 51","zip":185,"regionId":204329,"regionName":"Rome","regionParent":"Lazio","countryName":"Italy","latitude":41.905,"longitude":12.502,"rating":2,"photoUrl":"http://www.sletoh.com/photo/5/261971.jpg","price":17984},{"hotelId":61804,"hotelName":"Verol Hotel","street":"Sagasta 25","zip":35008,"regionId":175285,"regionName":"Las Palmas de Gran Canaria","regionParent":"Gran Canaria","countryName":"Spain","latitude":28.143,"longitude":-15.43,"rating":3,"photoUrl":"http://www.sletoh.com/photo/1/606968.jpg","price":24596},{"hotelId":53202,"hotelName":"Aspen Apartments","street":"176 Sussex Gardens, Paddington","zip":"W2 1TP","regionId":7183,"regionName":"London","regionParent":"Greater London","countryName":"UK","latitude":51.514,"longitude":-0.173,"rating":3,"photoUrl":"http://www.sletoh.com/photo/1/65508.jpg","price":14550},{"hotelId":13864,"hotelName":"Relais Bosquet Tour - Eiffel","street":"19, Rue du Champ de Mars","zip":75007,"regionId":143798,"regionName":"Paris","regionParent":"Ile-de-France","countryName":"France","latitude":48.856,"longitude":2.3065,"rating":3,"photoUrl":"http://www.sletoh.com/photo/1/19130.jpg","price":17231},{"hotelId":35003,"hotelName":"Inter-Hotel La Belle Etoile","street":"Za Les Alouettes","zip":62223,"regionId":152100,"regionName":"Saint-Nicolas","regionParent":"Nord-Pas-de-Calais","countryName":"France","latitude":50.308,"longitude":2.7799,"rating":2,"photoUrl":"http://www.sletoh.com/photo/1/46479.jpg","price":21151},{"hotelId":63816,"hotelName":"Villa Sjotorp Hotel","street":"Lyckorna Pl 22009","zip":45933,"regionId":361446,"regionName":"Ljungskile","regionParent":"Vastra Gotalands Lan","countryName":"Sweden","latitude":58.215,"longitude":11.915,"rating":"","photoUrl":"http://www.sletoh.com/photo/12/456555.jpg","price":20671},{"hotelId":31688,"hotelName":"Le Village Hotel","street":"Max- Eyth- Strasse 41","zip":71364,"regionId":100845,"regionName":"Winnenden","regionParent":"Baden Wurttemberg","countryName":"Germany","latitude":48.871,"longitude":9.3826,"rating":3,"photoUrl":"http://www.sletoh.com/photo/1/42743.jpg","price":10419},{"hotelId":34708,"hotelName":"Allalin","street":"Kirchstrasse, Zermatt","zip":"CH 3920","regionId":231570,"regionName":"Zermatt","regionParent":"Canton du Valais","countryName":"Switzerland","latitude":46.019,"longitude":7.748,"rating":4,"photoUrl":"http://www.sletoh.com/photo/4/99998.jpg","price":21497},{"hotelId":14892,"hotelName":"Appart'hotel Victoria Garden Lourdes","street":"60 Rue De La Grotte","zip":65100,"regionId":136855,"regionName":"Lourdes","regionParent":"Midi-Pyrenees","countryName":"France","latitude":43.095,"longitude":-0.049,"rating":2,"photoUrl":"http://www.sletoh.com/photo/1/20819.jpg","price":7467},{"hotelId":31197,"hotelName":"Club Sa Coma Apartments","street":"Cards","zip":"07687","regionId":182961,"regionName":"Sa Coma","regionParent":"Mallorca","countryName":"Spain","latitude":39.577,"longitude":3.3743,"rating":2,"photoUrl":"http://www.sletoh.com/photo/2/321236.jpg","price":23127},{"hotelId":24763,"hotelName":"Delle Arti Hotel","street":"Via Dei Servi 38 A","zip":50122,"regionId":196899,"regionName":"Florence","regionParent":"Tuscany","countryName":"Italy","latitude":43.775,"longitude":11.259,"rating":3,"photoUrl":"http://www.sletoh.com/photo/1/34750.jpg","price":9184},{"hotelId":10450,"hotelName":"Jagdhaus Hotel","street":"Schutzenstr. 58","zip":33181,"regionId":97809,"regionName":"Wunnenberg","regionParent":"North Rhine-Westphalia","countryName":"Germany","latitude":51.514,"longitude":8.683,"rating":"","photoUrl":"http://www.sletoh.com/photo/1/14107.jpg","price":13938},{"hotelId":37260,"hotelName":"Vip Diplomatico Hotel","street":"Rua Castilho, 74","zip":"1250 071","regionId":251992,"regionName":"Lisbon","regionParent":"Lisbon","countryName":"Portugal","latitude":38.723,"longitude":-9.152,"rating":4,"photoUrl":"http://www.sletoh.com/photo/1/49411.jpg","price":22082},{"hotelId":12079,"hotelName":"Burgkeller Hotel","street":"Domplatz 11","zip":1662,"regionId":24652,"regionName":"Meissen","regionParent":"Saxony","countryName":"Germany","latitude":51.165,"longitude":13.47,"rating":4,"photoUrl":"http://www.sletoh.com/photo/1/16946.jpg","price":20961},{"hotelId":38291,"hotelName":"Bilderberg Parkhotel Rotterdam","street":"Westersingel 70, Center","zip":"3015 LB","regionId":266444,"regionName":"Rotterdam","regionParent":"South Holland","countryName":"Netherlands","latitude":51.915,"longitude":4.4738,"rating":4,"photoUrl":"http://localhost/platform/photo/1/699176.jpg","price":6085},{"hotelId":74319,"hotelName":"Logis de Nevers","street":"13 Avenue Maransin","zip":65100,"regionId":136855,"regionName":"Lourdes","regionParent":"Midi-Pyrenees","countryName":"France","latitude":43.098,"longitude":-0.045,"rating":3,"photoUrl":"http://localhost/platform/photo/1/704948.jpg","price":19114},{"hotelId":4450,"hotelName":"Sir Christopher Wren's House Hotel and Spa","street":"Thames Street","zip":"SL4 1PX","regionId":15852,"regionName":"Windsor","regionParent":"South East","countryName":"UK","latitude":51.477,"longitude":-0.627,"rating":4,"photoUrl":"http://www.sletoh.com/photo/1/6393.jpg","price":18700},{"hotelId":75814,"hotelName":"Oasis Sa Tanca Apartments","street":"Carretera Cala Llonga, s/n","zip":"07840","regionId":165659,"regionName":"Cala Llonga","regionParent":"Ibiza","countryName":"Spain","latitude":38.954,"longitude":1.5181,"rating":2,"photoUrl":"http://localhost/platform/photo/1/716380.jpg","price":6592},{"hotelId":35154,"hotelName":"Italia Hotel","street":"Piazza Matteotti,12","zip":"06034","regionId":196936,"regionName":"Foligno","regionParent":"Umbria","countryName":"Italy","latitude":42.955,"longitude":12.703,"rating":3,"photoUrl":"http://www.sletoh.com/photo/1/46683.jpg","price":24768},{"hotelId":59682,"hotelName":"Dream Paradise hotel","street":"Suleyman Demirel Blv.bingesik Mevkii P.k. 146","zip":"07330","regionId":322450,"regionName":"Side","regionParent":"Mediterranean Region","countryName":"Turkey","latitude":36.766,"longitude":31.39,"rating":3,"photoUrl":"http://www.sletoh.com/photo/7/352882.jpg","price":12937},{"hotelId":60921,"hotelName":"Gran Hotel Toledo","street":"Argelita, 20","zip":12200,"regionId":179403,"regionName":"Onda","regionParent":"Valencian Community","countryName":"Spain","latitude":39.967,"longitude":-0.264,"rating":2,"photoUrl":"http://www.sletoh.com/photo/1/325682.jpg","price":12711},{"hotelId":26495,"hotelName":"Regina","street":"Via Torino 6","zip":55042,"regionId":197104,"regionName":"Forte dei Marmi","regionParent":"Tuscany","countryName":"Italy","latitude":43.954,"longitude":10.172,"rating":3,"photoUrl":"http://www.sletoh.com/photo/1/37377.jpg","price":14685},{"hotelId":55266,"hotelName":"Fasthotel Poitiers Futuroscope","street":"2 Rue De La Haute Payre","zip":86130,"regionId":112522,"regionName":"Chasseneuil-du-Poitou","regionParent":"Poitou-Charentes","countryName":"France","latitude":46.674,"longitude":0.3767,"rating":1,"photoUrl":"http://www.sletoh.com/photo/1/71798.jpg","price":14398},{"hotelId":28851,"hotelName":"Burlamacco","street":"Via Veneto, 98","zip":55049,"regionId":208877,"regionName":"Viareggio","regionParent":"Tuscany","countryName":"Italy","latitude":43.868,"longitude":10.25,"rating":1,"photoUrl":"http://www.sletoh.com/photo/1/40989.jpg","price":5897},{"hotelId":76883,"hotelName":"nhow Berlin","street":"Stralauer Allee 3","zip":10245,"regionId":30675,"regionName":"Berlin","regionParent":"Berlin","countryName":"Germany","latitude":52.501,"longitude":13.449,"rating":4,"photoUrl":"http://localhost/platform/photo/1/710378.jpg","price":19644},{"hotelId":31532,"hotelName":"Somerton Lodge Hotel","street":"Victoria Avenue","zip":"PO376LT","regionId":13096,"regionName":"Shanklin","regionParent":"Isle of Wight","countryName":"UK","latitude":50.627,"longitude":-1.185,"rating":2,"photoUrl":"http://www.sletoh.com/photo/1/42502.jpg","price":8264},{"hotelId":67551,"hotelName":"Ibis Hamburg Airport","street":"Alsterkrugchaussee 445","zip":22335,"regionId":49353,"regionName":"Hamburg-Barmbek-Uhlenhorst","regionParent":"Hamburg","countryName":"Germany","latitude":53.622,"longitude":10.01,"rating":2,"photoUrl":"http://www.sletoh.com/photo/15/583369.jpg","price":11720},{"hotelId":46226,"hotelName":"Lunezia Resort","street":"Localite Lo Schiado","zip":54011,"regionId":190902,"regionName":"Aulla","regionParent":"Tuscany","countryName":"Italy","latitude":44.206,"longitude":9.9735,"rating":"","photoUrl":"http://www.sletoh.com/photo/1/57625.jpg","price":11653},{"hotelId":34995,"hotelName":"Bastille Charonne Hotel","street":"71, Rue de Charonne","zip":75011,"regionId":143798,"regionName":"Paris","regionParent":"Ile-de-France","countryName":"France","latitude":48.853,"longitude":2.3805,"rating":1,"photoUrl":"http://www.sletoh.com/photo/1/46466.jpg","price":21975},{"hotelId":57490,"hotelName":"Magnetberg Hotel","street":"Scheibenstrasse 18","zip":76530,"regionId":28381,"regionName":"Baden-Baden","regionParent":"Baden Wurttemberg","countryName":"Germany","latitude":48.761,"longitude":8.2465,"rating":3,"photoUrl":"http://www.sletoh.com/photo/1/263684.jpg","price":24064},{"hotelId":2721,"hotelName":"Beach Hotel","street":"Marine Parade","zip":"BN11 3QJ","regionId":16118,"regionName":"Worthing","regionParent":"South East","countryName":"UK","latitude":50.808,"longitude":-0.381,"rating":3,"photoUrl":"http://www.sletoh.com/photo/1/3786.jpg","price":13305},{"hotelId":38235,"hotelName":"Mercure Amersfoort Veluwemeer Hotel","street":"Strandboulevard 3","zip":"3882 RN","regionId":266221,"regionName":"Putten","regionParent":"Gelderland","countryName":"Netherlands","latitude":52.268,"longitude":5.5323,"rating":4,"photoUrl":"http://www.sletoh.com/photo/1/50990.jpg","price":16344},{"hotelId":40607,"hotelName":"Vila Channa Hotel","street":"Sao Rafael","zip":"8200-470","regionId":244658,"regionName":"Albufeira","regionParent":"Faro","countryName":"Portugal","latitude":37.08,"longitude":-8.282,"rating":3,"photoUrl":"http://www.sletoh.com/photo/1/54023.jpg","price":21544},{"hotelId":65761,"hotelName":"Celine Hotel","street":"Portigliolo","zip":20138,"regionId":114868,"regionName":"Coti-Chiavari","regionParent":"Corsica","countryName":"France","latitude":41.796,"longitude":8.7393,"rating":3,"photoUrl":"http://www.sletoh.com/photo/1/607976.jpg","price":22877},{"hotelId":29121,"hotelName":"Albergo Giovanna","street":"Via Faenza 69","zip":50123,"regionId":196899,"regionName":"Florence","regionParent":"Tuscany","countryName":"Italy","latitude":43.777,"longitude":11.251,"rating":1,"photoUrl":"http://www.sletoh.com/photo/3/221831.jpg","price":12951},{"hotelId":55630,"hotelName":"Allgau Garni Hotel","street":"Am Brunnenbuhl 11","zip":88175,"regionId":85742,"regionName":"Scheidegg","regionParent":"Bavaria","countryName":"Germany","latitude":47.582,"longitude":9.8595,"rating":3,"photoUrl":"http://www.sletoh.com/photo/1/72398.jpg","price":7964},{"hotelId":67702,"hotelName":"Gran Duca Di York Hotel","street":"Via Moneta 1 A","zip":20123,"regionId":200136,"regionName":"Milan","regionParent":"Lombardy","countryName":"Italy","latitude":45.463,"longitude":9.1855,"rating":3,"photoUrl":"http://www.sletoh.com/photo/15/477956.jpg","price":6270},{"hotelId":70254,"hotelName":"El Repelao Hotel","street":"El Repelao s/n","zip":33589,"regionId":166180,"regionName":"Cangas de Onis","regionParent":"Asturias","countryName":"Spain","latitude":43.309,"longitude":-5.054,"rating":2,"photoUrl":"http://www.sletoh.com/photo/1/604379.jpg","price":9735},{"hotelId":42237,"hotelName":"K+K Hotel Opera","street":"Revay utca 24","zip":1065,"regionId":270538,"regionName":"Budapest","regionParent":"Budapest","countryName":"Hungary","latitude":47.502,"longitude":19.057,"rating":4,"photoUrl":"http://www.sletoh.com/photo/1/55086.jpg","price":10089},{"hotelId":43175,"hotelName":"Hobart Apartments Tasmania Australia","street":"369 Brooker Avenue/Highway Hobart Lutana Tasmania369 Brooker Ave","zip":7009,"regionId":289427,"regionName":"Lutana","regionParent":"Tasmania","countryName":"Australia","latitude":-42.84,"longitude":147.3,"rating":3,"photoUrl":"http://www.sletoh.com/photo/3/241704.jpg","price":21366},{"hotelId":17452,"hotelName":"B &amp; B Mas Du Clos De L Escarrat","street":"chemin de l'Escarrat","zip":84150,"regionId":123290,"regionName":"Jonquieres","regionParent":"Provence-Alpes-Cote d'Azur","countryName":"France","latitude":44.12,"longitude":4.8794,"rating":3,"photoUrl":"http://www.sletoh.com/photo/3/185792.jpg","price":17198},{"hotelId":11159,"hotelName":"Hotel ESPERANTO Kongress- und Kulturzentrum Fulda","street":"Esperantoplatz","zip":36037,"regionId":43455,"regionName":"Fulda","regionParent":"Hessen","countryName":"Germany","latitude":50.556,"longitude":9.6845,"rating":4,"photoUrl":"http://www.sletoh.com/photo/1/15348.jpg","price":13433},{"hotelId":38624,"hotelName":"Carlton Plaza","street":"Av. Meritxell, 23-25","zip":"AD500","regionId":268380,"regionName":"Andorra la Vella","regionParent":"Andorra","countryName":"Andorra","latitude":42.508,"longitude":1.525,"rating":5,"photoUrl":"http://www.sletoh.com/photo/1/51638.jpg","price":10450},{"hotelId":17565,"hotelName":"Garden Hotel","street":"1 Rue Du General Blaise","zip":75011,"regionId":143798,"regionName":"Paris","regionParent":"Ile-de-France","countryName":"France","latitude":48.86,"longitude":2.3791,"rating":2,"photoUrl":"http://localhost/platform/photo/1/711993.jpg","price":20265},{"hotelId":55304,"hotelName":"Au Bon Accueil","street":"39, Rue Marceau","zip":44600,"regionId":152080,"regionName":"Saint-Nazaire","regionParent":"Pays de la Loire","countryName":"France","latitude":47.276,"longitude":-2.21,"rating":3,"photoUrl":"http://www.sletoh.com/photo/1/71857.jpg","price":23086},{"hotelId":21064,"hotelName":"Griego Mar","street":"Avda De Sorolla, 7","zip":29620,"regionId":186448,"regionName":"Torremolinos","regionParent":"Andalusia","countryName":"Spain","latitude":36.625,"longitude":-4.503,"rating":3,"photoUrl":"http://localhost/platform/photo/1/732831.jpg","price":8614},{"hotelId":13153,"hotelName":"Moor cock Inn Hotel Clitheroe","street":"Slaidburn Road","zip":"BB7 3AA","regionId":15065,"regionName":"Waddington","regionParent":"North West","countryName":"UK","latitude":53.915,"longitude":-2.43,"rating":4,"photoUrl":"http://www.sletoh.com/photo/3/180845.jpg","price":8372},{"hotelId":28482,"hotelName":"Da Merlo","street":"Via Parmenide 7","zip":30030,"regionId":208220,"regionName":"Trivignano","regionParent":"Veneto","countryName":"Italy","latitude":45.527,"longitude":12.193,"rating":"","photoUrl":"http://www.sletoh.com/photo/1/40435.jpg","price":6787},{"hotelId":57890,"hotelName":"Crowne Plaza Dublin Blanchardstown","street":"Blanchardstown Centre","zip":"D15","regionId":19682,"regionName":"Dublin","regionParent":"County Dublin","countryName":"Ireland","latitude":53.385,"longitude":-6.376,"rating":4,"photoUrl":"http://localhost/platform/photo/15/654696.jpg","price":19523},{"hotelId":64904,"hotelName":"Lymberia Hotel","street":"","zip":85100,"regionId":337996,"regionName":"Faliraki","regionParent":"Rhodes","countryName":"Greece","latitude":36.33,"longitude":28.2,"rating":3,"photoUrl":"http://www.sletoh.com/photo/12/416378.jpg","price":12951},{"hotelId":62927,"hotelName":"Laurel Bank","street":"Achintore Road","zip":"PH33 6RQ","regionId":6252,"regionName":"Fort William","regionParent":"Scotland","countryName":"UK","latitude":56.81,"longitude":-5.123,"rating":4,"photoUrl":"http://www.sletoh.com/photo/1/610406.jpg","price":24029},{"hotelId":40622,"hotelName":"Pousada Dom Diniz","street":"Largo do Terreiro","zip":"4920-296","regionId":260330,"regionName":"Vila Nova da Cerveira","regionParent":"Viana do Castelo","countryName":"Portugal","latitude":41.94,"longitude":-8.745,"rating":4,"photoUrl":"http://www.sletoh.com/photo/4/123419.jpg","price":5531},{"hotelId":6945,"hotelName":"Holiday Inn Warrington","street":"1 Woolston Grange Avenue, Woolston","zip":"WA1 4PX","regionId":15207,"regionName":"Warrington","regionParent":"North West","countryName":"UK","latitude":53.399,"longitude":-2.513,"rating":3,"photoUrl":"http://www.sletoh.com/photo/3/175289.jpg","price":24531},{"hotelId":32581,"hotelName":"Relais Des 2 Rivieres","street":"33 Boulevard Gambetta","zip":76000,"regionId":148217,"regionName":"Rouen","regionParent":"Upper Normandy","countryName":"France","latitude":49.438,"longitude":1.1105,"rating":2,"photoUrl":"http://www.sletoh.com/photo/7/144451.jpg","price":15716},{"hotelId":38298,"hotelName":"Turkuaz Hotel","street":"Henegouwerplein 56-58","zip":"3021 PN","regionId":266444,"regionName":"Rotterdam","regionParent":"South Holland","countryName":"Netherlands","latitude":51.921,"longitude":4.4602,"rating":3,"photoUrl":"http://www.sletoh.com/photo/1/51099.jpg","price":7091},{"hotelId":1262,"hotelName":"Ramada Encore","street":"22 Bath Road","zip":"BH1 2NS","regionId":2733,"regionName":"Bournemouth","regionParent":"South West","countryName":"UK","latitude":50.721,"longitude":-1.869,"rating":3,"photoUrl":"http://www.sletoh.com/photo/1/1419.jpg","price":15619},{"hotelId":42036,"hotelName":"Nettuno Beach Hotel","street":"Via Trazzera Merina 336","zip":98071,"regionId":192922,"regionName":"Capo d'Orlando","regionParent":"Sicily","countryName":"Italy","latitude":38.137,"longitude":14.718,"rating":3,"photoUrl":"http://www.sletoh.com/photo/1/54758.jpg","price":9281},{"hotelId":37846,"hotelName":"Die Port van Cleve","street":"Dijk 74","zip":"1601GK","regionId":262735,"regionName":"Enkhuizen","regionParent":"North Holland","countryName":"Netherlands","latitude":52.702,"longitude":5.2905,"rating":3,"photoUrl":"http://www.sletoh.com/photo/1/50331.jpg","price":16805},{"hotelId":9421,"hotelName":"Brauhaus Manforter Hof","street":"Manforterstrasse 247","zip":51373,"regionId":64769,"regionName":"Leverkusen","regionParent":"North Rhine-Westphalia","countryName":"Germany","latitude":51.031,"longitude":7.0082,"rating":"","photoUrl":"http://www.sletoh.com/photo/1/12262.jpg","price":16713},{"hotelId":9302,"hotelName":"Seepark Kirchheim","street":"Reimboldshauser Strasse","zip":36275,"regionId":59134,"regionName":"Kirchheim","regionParent":"Hessen","countryName":"Germany","latitude":50.818,"longitude":9.5258,"rating":"","photoUrl":"http://www.sletoh.com/photo/1/12054.jpg","price":9017},{"hotelId":62632,"hotelName":"Portland Spa Hotel","street":"Southwell Park","zip":"DT5 2NA","regionId":5615,"regionName":"Easton","regionParent":"South West","countryName":"UK","latitude":50.528,"longitude":-2.452,"rating":4,"photoUrl":"http://localhost/platform/photo/3/626990.jpg","price":24547},{"hotelId":18737,"hotelName":"Partner Segria","street":"2o Passeig de Ronda, 23","zip":25004,"regionId":175860,"regionName":"Lleida","regionParent":"Catalonia","countryName":"Spain","latitude":41.624,"longitude":0.6272,"rating":1,"photoUrl":"http://www.sletoh.com/photo/1/26495.jpg","price":23724},{"hotelId":6311,"hotelName":"Holiday Inn Coventry M6","street":"Hinckley Road Walsgrave","zip":"CV2 2HP","regionId":4509,"regionName":"Coventry","regionParent":"West Midlands","countryName":"UK","latitude":52.43,"longitude":-1.435,"rating":3,"photoUrl":"http://localhost/platform/photo/15/673234.jpg","price":6313},{"hotelId":72893,"hotelName":"Ibersol Cavaliere Sur Plage Hotel","street":"Avenue du Cap Negre 2","zip":83980,"regionId":131267,"regionName":"Le Lavandou","regionParent":"Provence-Alpes-Cote d'Azur","countryName":"France","latitude":43.151,"longitude":6.4273,"rating":"","photoUrl":"http://www.sletoh.com/photo/14/466367.jpg","price":16441},{"hotelId":14940,"hotelName":"Eurogroup Hotel Royal Ours Blanc","street":"Avenue des Jeux","zip":38750,"regionId":103516,"regionName":"Alpe d'Huez","regionParent":"Rhone-Alpes","countryName":"France","latitude":45.097,"longitude":6.0811,"rating":4,"photoUrl":"http://www.sletoh.com/photo/1/20905.jpg","price":9884},{"hotelId":5726,"hotelName":"NH Kensington","street":"202-220 Cromwell Road","zip":"SW5 0SW","regionId":7183,"regionName":"London","regionParent":"Greater London","countryName":"UK","latitude":51.494,"longitude":-0.193,"rating":4,"photoUrl":"http://www.sletoh.com/photo/1/7575.jpg","price":23934},{"hotelId":68447,"hotelName":"Mediterranee","street":"Agiou Nikolaou 18","zip":26221,"regionId":343618,"regionName":"Patras","regionParent":"Greece","countryName":"Greece","latitude":38.246,"longitude":21.737,"rating":2,"photoUrl":"http://www.sletoh.com/photo/1/604444.jpg","price":13814},{"hotelId":10536,"hotelName":"Markisches Tagungshotel","street":"Zum Konigsgraben 1","zip":15806,"regionId":35500,"regionName":"Dabendorf","regionParent":"Brandenburg","countryName":"Germany","latitude":52.241,"longitude":13.422,"rating":3,"photoUrl":"http://www.sletoh.com/photo/1/14266.jpg","price":15060},{"hotelId":32746,"hotelName":"King Rose","street":"Via S Donato 79/2 Granarolo Emilia","zip":40057,"regionId":191703,"regionName":"Bologna","regionParent":"Emilia-Romagna","countryName":"Italy","latitude":44.505,"longitude":11.369,"rating":3,"photoUrl":"http://www.sletoh.com/photo/4/97744.jpg","price":18462},{"hotelId":57647,"hotelName":"Iris Porsche Hotel &amp; Restaurant","street":"Marktplatz 1","zip":5310,"regionId":217614,"regionName":"Mondsee","regionParent":"Upper Austria","countryName":"Austria","latitude":47.855,"longitude":13.349,"rating":"","photoUrl":"http://www.sletoh.com/photo/1/264065.jpg","price":18455},{"hotelId":74403,"hotelName":"Lorient Hotel","street":"46 Rue De Lorient","zip":35000,"regionId":147273,"regionName":"Rennes","regionParent":"Brittany","countryName":"France","latitude":48.108,"longitude":-1.703,"rating":2,"photoUrl":"http://localhost/platform/photo/1/704825.jpg","price":8150},{"hotelId":60530,"hotelName":"Drive Inn Hotel","street":"To utca 1.","zip":2045,"regionId":282825,"regionName":"Torokbalint","regionParent":"Pest","countryName":"Hungary","latitude":47.452,"longitude":18.909,"rating":2,"photoUrl":"http://www.sletoh.com/photo/1/326263.jpg","price":6284},{"hotelId":19599,"hotelName":"Rua Villar Hotel","street":"Rua Del Villar 8 - 10","zip":15705,"regionId":184617,"regionName":"Santiago de Compostela","regionParent":"Galicia","countryName":"Spain","latitude":42.879,"longitude":-8.544,"rating":3,"photoUrl":"http://www.sletoh.com/photo/1/27897.jpg","price":18239},{"hotelId":3235,"hotelName":"Gables Hotel","street":"Front Street, Haswell Plough","zip":"DH6 2EW","regionId":9923,"regionName":"Ludworth","regionParent":"North East","countryName":"UK","latitude":54.772,"longitude":-1.423,"rating":3,"photoUrl":"http://www.sletoh.com/photo/1/266781.jpg","price":20145},{"hotelId":11753,"hotelName":"Zugbrucke Grenzau Hotel","street":"Brexbachstrasse 11-17","zip":56203,"regionId":50821,"regionName":"Hohr-Grenzhausen","regionParent":"Rhineland-Palatinate","countryName":"Germany","latitude":50.452,"longitude":7.662,"rating":4,"photoUrl":"http://www.sletoh.com/photo/1/16388.jpg","price":18863},{"hotelId":50636,"hotelName":"Tamarix Del Mar","street":"Santorini","zip":84700,"regionId":347241,"regionName":"Kamari","regionParent":"Santorini","countryName":"Greece","latitude":36.372,"longitude":25.481,"rating":5,"photoUrl":"http://www.sletoh.com/photo/1/63854.jpg","price":21131},{"hotelId":21745,"hotelName":"Inter-Hotel Bristol","street":"Angle Avenue Victoria & Rue Du Casino - Bp 502","zip":73100,"regionId":103299,"regionName":"Aix-les-Bains","regionParent":"Rhone-Alpes","countryName":"France","latitude":45.69,"longitude":5.9131,"rating":2,"photoUrl":"http://www.sletoh.com/photo/1/30688.jpg","price":16430},